{
   "type": "FeatureCollection",
   "features": [{
	"_id": {
		"$oid": "58c9219b6065008114826dd7"
	},
	"type": "Feature",
	"geometry": {
		"type": "Point",
		"coordinates": [
			-106.9331817,
			38.53396333
		]
	},
	"properties": {
		"iata": "GUC",
		"airport": "Gunnison County",
		"city": "Gunnison",
		"state": "CO",
		"country": "USA"
	}
},
{
	"_id": {
		"$oid": "58c9219b6065008114826a9d"
	},
	"type": "Feature",
	"geometry": {
		"type": "Point",
		"coordinates": [
			-105.8665556,
			37.43491667
		]
	},
	"properties": {
		"iata": "ALS",
		"airport": "San Luis Valley Regional/Bergman ",
		"city": "Alamosa",
		"state": "CO",
		"country": "USA"
	}
},
{
	"_id": {
		"$oid": "58c9219b606500811482725d"
	},
	"type": "Feature",
	"geometry": {
		"type": "Point",
		"coordinates": [
			-104.5021833,
			36.74152778
		]
	},
	"properties": {
		"iata": "RTN",
		"airport": "Raton Municipal/Crews ",
		"city": "Raton",
		"state": "NM",
		"country": "USA"
	}
},
{
	"_id": {
		"$oid": "58c9219b6065008114827088"
	},
	"type": "Feature",
	"geometry": {
		"type": "Point",
		"coordinates": [
			-106.0460533,
			37.52855833
		]
	},
	"properties": {
		"iata": "MVI",
		"airport": "Monte Vista Muni",
		"city": "Monte Vista",
		"state": "CO",
		"country": "USA"
	}
},
{
	"_id": {
		"$oid": "58c9219b6065008114826ad4"
	},
	"type": "Feature",
	"geometry": {
		"type": "Point",
		"coordinates": [
			-97.99455556,
			40.89413889
		]
	},
	"properties": {
		"iata": "AUH",
		"airport": "Aurora Municipal",
		"city": "Aurora",
		"state": "NE",
		"country": "USA"
	}
},
{
	"_id": {
		"$oid": "58c9219b6065008114826b8b"
	},
	"type": "Feature",
	"geometry": {
		"type": "Point",
		"coordinates": [
			-103.1546583,
			36.44585972
		]
	},
	"properties": {
		"iata": "CAO",
		"airport": "Clayton Municipal Airpark",
		"city": "Clayton",
		"state": "NM",
		"country": "USA"
	}
},
{
	"_id": {
		"$oid": "58c9219b6065008114826777"
	},
	"type": "Feature",
	"geometry": {
		"type": "Point",
		"coordinates": [
			-98.05033639,
			41.11668056
		]
	},
	"properties": {
		"iata": "07K",
		"airport": "Central City Municipal",
		"city": "Central City",
		"state": "NE",
		"country": "USA"
	}
},
{
	"_id": {
		"$oid": "58c9219b6065008114826b89"
	},
	"type": "Feature",
	"geometry": {
		"type": "Point",
		"coordinates": [
			-107.5216467,
			40.49522139
		]
	},
	"properties": {
		"iata": "CAG",
		"airport": "Craig-Moffat",
		"city": "Craig",
		"state": "CO",
		"country": "USA"
	}
},
{
	"_id": {
		"$oid": "58c9219b6065008114826c11"
	},
	"type": "Feature",
	"geometry": {
		"type": "Point",
		"coordinates": [
			-103.6176947,
			43.73331611
		]
	},
	"properties": {
		"iata": "CUT",
		"airport": "Custer County",
		"city": "Custer",
		"state": "SD",
		"country": "USA"
	}
},
{
	"_id": {
		"$oid": "58c9219b6065008114826a13"
	},
	"type": "Feature",
	"geometry": {
		"type": "Point",
		"coordinates": [
			-99.03787611,
			42.56250167
		]
	},
	"properties": {
		"iata": "8V2",
		"airport": "Stuart-Atkinson Municipal",
		"city": "Atkinson",
		"state": "NE",
		"country": "USA"
	}
},
{
	"_id": {
		"$oid": "58c9219b6065008114826a38"
	},
	"type": "Feature",
	"geometry": {
		"type": "Point",
		"coordinates": [
			-98.23061222,
			38.74750889
		]
	},
	"properties": {
		"iata": "9K7",
		"airport": "Ellsworth Municipal ",
		"city": "Ellsworth",
		"state": "KS",
		"country": "USA"
	}
},
{
	"_id": {
		"$oid": "58c9219b606500811482720b"
	},
	"type": "Feature",
	"geometry": {
		"type": "Point",
		"coordinates": [
			-100.5298708,
			36.79891472
		]
	},
	"properties": {
		"iata": "Q44",
		"airport": "Beaver Municipal",
		"city": "Beaver",
		"state": "OK",
		"country": "USA"
	}
},
{
	"_id": {
		"$oid": "58c9219b6065008114826a44"
	},
	"type": "Feature",
	"geometry": {
		"type": "Point",
		"coordinates": [
			-107.4972869,
			41.03829806
		]
	},
	"properties": {
		"iata": "9U4",
		"airport": "Dixon",
		"city": "Dixon",
		"state": "WY",
		"country": "USA"
	}
},
{
	"_id": {
		"$oid": "58c9219b6065008114827268"
	},
	"type": "Feature",
	"geometry": {
		"type": "Point",
		"coordinates": [
			-107.19994,
			41.8055975
		]
	},
	"properties": {
		"iata": "RWL",
		"airport": "Rawlins Muni",
		"city": "Rawlins",
		"state": "WY",
		"country": "USA"
	}
},
{
	"_id": {
		"$oid": "58c9219b606500811482697a"
	},
	"type": "Feature",
	"geometry": {
		"type": "Point",
		"coordinates": [
			-101.4970881,
			43.83332611
		]
	},
	"properties": {
		"iata": "5V8",
		"airport": "Kadoka Municipal",
		"city": "Kadoka",
		"state": "SD",
		"country": "USA"
	}
},
{
	"_id": {
		"$oid": "58c9219b6065008114827132"
	},
	"type": "Feature",
	"geometry": {
		"type": "Point",
		"coordinates": [
			-98.68805556,
			42.46988889
		]
	},
	"properties": {
		"iata": "ONL",
		"airport": "O Neill Municipal",
		"city": "O Neill",
		"state": "NE",
		"country": "USA"
	}
},
{
	"_id": {
		"$oid": "58c9219b6065008114826b5e"
	},
	"type": "Feature",
	"geometry": {
		"type": "Point",
		"coordinates": [
			-98.05575972,
			41.72857778
		]
	},
	"properties": {
		"iata": "BVN",
		"airport": "Albion Municipal",
		"city": "Albion",
		"state": "NE",
		"country": "USA"
	}
},
{
	"_id": {
		"$oid": "58c9219b6065008114827250"
	},
	"type": "Feature",
	"geometry": {
		"type": "Point",
		"coordinates": [
			-97.659625,
			39.81790861
		]
	},
	"properties": {
		"iata": "RPB",
		"airport": "Belleville Municipal",
		"city": "Belleville",
		"state": "KS",
		"country": "USA"
	}
},
{
	"_id": {
		"$oid": "58c9219b6065008114827234"
	},
	"type": "Feature",
	"geometry": {
		"type": "Point",
		"coordinates": [
			-107.7269403,
			39.526315
		]
	},
	"properties": {
		"iata": "RIL",
		"airport": "Garfield County Regional",
		"city": "Rifle",
		"state": "CO",
		"country": "USA"
	}
},
{
	"_id": {
		"$oid": "58c9219b6065008114826fb6"
	},
	"type": "Feature",
	"geometry": {
		"type": "Point",
		"coordinates": [
			-98.22709639,
			38.34261472
		]
	},
	"properties": {
		"iata": "LYO",
		"airport": "Lyons-Rice County Municipal",
		"city": "Lyons",
		"state": "KS",
		"country": "USA"
	}
},
{
	"_id": {
		"$oid": "58c9219b60650081148269b9"
	},
	"type": "Feature",
	"geometry": {
		"type": "Point",
		"coordinates": [
			-102.2504367,
			43.99498861
		]
	},
	"properties": {
		"iata": "6V4",
		"airport": "Wall Municipal",
		"city": "Wall",
		"state": "SD",
		"country": "USA"
	}
},
{
	"_id": {
		"$oid": "58c9219b60650081148271e1"
	},
	"type": "Feature",
	"geometry": {
		"type": "Point",
		"coordinates": [
			-98.7462025,
			37.7000175
		]
	},
	"properties": {
		"iata": "PTT",
		"airport": "Pratt Industrial",
		"city": "Pratt",
		"state": "KS",
		"country": "USA"
	}
},
{
	"_id": {
		"$oid": "58c9219b6065008114826e1c"
	},
	"type": "Feature",
	"geometry": {
		"type": "Point",
		"coordinates": [
			-97.58697222,
			40.15225
		]
	},
	"properties": {
		"iata": "HJH",
		"airport": "Hebron Municipal",
		"city": "Hebron",
		"state": "NE",
		"country": "USA"
	}
},
{
	"_id": {
		"$oid": "58c9219b60650081148272d4"
	},
	"type": "Feature",
	"geometry": {
		"type": "Point",
		"coordinates": [
			-99.84256194,
			43.39058278
		]
	},
	"properties": {
		"iata": "SFD",
		"airport": "Bob Wiley ",
		"city": "Winner",
		"state": "SD",
		"country": "USA"
	}
},
{
	"_id": {
		"$oid": "58c9219b6065008114826be1"
	},
	"type": "Feature",
	"geometry": {
		"type": "Point",
		"coordinates": [
			-97.65231667,
			39.54925139
		]
	},
	"properties": {
		"iata": "CNK",
		"airport": "Blosser Municipal",
		"city": "Concordia",
		"state": "KS",
		"country": "USA"
	}
},
{
	"_id": {
		"$oid": "58c9219b6065008114826d58"
	},
	"type": "Feature",
	"geometry": {
		"type": "Point",
		"coordinates": [
			-97.57305556,
			40.58569444
		]
	},
	"properties": {
		"iata": "FMZ",
		"airport": "Fairmont State",
		"city": "Fairmont",
		"state": "NE",
		"country": "USA"
	}
},
{
	"_id": {
		"$oid": "58c9219b606500811482721a"
	},
	"type": "Feature",
	"geometry": {
		"type": "Point",
		"coordinates": [
			-103.0573708,
			44.04532139
		]
	},
	"properties": {
		"iata": "RAP",
		"airport": "Rapid City Regional",
		"city": "Rapid City",
		"state": "SD",
		"country": "USA"
	}
},
{
	"_id": {
		"$oid": "58c9219b6065008114826ef7"
	},
	"type": "Feature",
	"geometry": {
		"type": "Point",
		"coordinates": [
			-97.62277778,
			40.89675
		]
	},
	"properties": {
		"iata": "JYR",
		"airport": "Municipal",
		"city": "York",
		"state": "NE",
		"country": "USA"
	}
},
{
	"_id": {
		"$oid": "58c9219b6065008114826cb3"
	},
	"type": "Feature",
	"geometry": {
		"type": "Point",
		"coordinates": [
			-107.8859067,
			40.04886222
		]
	},
	"properties": {
		"iata": "EEO",
		"airport": "Meeker",
		"city": "Meeker",
		"state": "CO",
		"country": "USA"
	}
},
{
	"_id": {
		"$oid": "58c9219b6065008114826cad"
	},
	"type": "Feature",
	"geometry": {
		"type": "Point",
		"coordinates": [
			-104.3179178,
			43.88545056
		]
	},
	"properties": {
		"iata": "ECS",
		"airport": "Mondell ",
		"city": "Newcastle",
		"state": "WY",
		"country": "USA"
	}
},
{
	"_id": {
		"$oid": "58c9219b6065008114826bf4"
	},
	"type": "Feature",
	"geometry": {
		"type": "Point",
		"coordinates": [
			-106.4644661,
			42.90835556
		]
	},
	"properties": {
		"iata": "CPR",
		"airport": "Natrona County Intl",
		"city": "Casper",
		"state": "WY",
		"country": "USA"
	}
},
{
	"_id": {
		"$oid": "58c9219b6065008114826a2b"
	},
	"type": "Feature",
	"geometry": {
		"type": "Point",
		"coordinates": [
			-99.4033,
			43.22174722
		]
	},
	"properties": {
		"iata": "9D1",
		"airport": "Gregory Municipal",
		"city": "Gregory",
		"state": "SD",
		"country": "USA"
	}
},
{
	"_id": {
		"$oid": "58c9219b6065008114826c96"
	},
	"type": "Feature",
	"geometry": {
		"type": "Point",
		"coordinates": [
			-101.4321894,
			36.23372611
		]
	},
	"properties": {
		"iata": "E19",
		"airport": "Gruver Municipal",
		"city": "Gruver",
		"state": "TX",
		"country": "USA"
	}
},
{
	"_id": {
		"$oid": "58c9219b60650081148271fa"
	},
	"type": "Feature",
	"geometry": {
		"type": "Point",
		"coordinates": [
			-100.7517883,
			36.41200333
		]
	},
	"properties": {
		"iata": "PYX",
		"airport": "Perryton Ochiltree County",
		"city": "Perryton",
		"state": "TX",
		"country": "USA"
	}
},
{
	"_id": {
		"$oid": "58c9219b60650081148270a8"
	},
	"type": "Feature",
	"geometry": {
		"type": "Point",
		"coordinates": [
			-105.5975,
			36.80030556
		]
	},
	"properties": {
		"iata": "N24",
		"airport": "Questa Municipal Nr 2",
		"city": "Questa",
		"state": "NM",
		"country": "USA"
	}
},
{
	"_id": {
		"$oid": "58c9219b6065008114827199"
	},
	"type": "Feature",
	"geometry": {
		"type": "Point",
		"coordinates": [
			-101.5990603,
			44.04862722
		]
	},
	"properties": {
		"iata": "PHP",
		"airport": "Philip",
		"city": "Philip",
		"state": "SD",
		"country": "USA"
	}
},
{
	"_id": {
		"$oid": "58c9219b60650081148272c1"
	},
	"type": "Feature",
	"geometry": {
		"type": "Point",
		"coordinates": [
			-100.7120811,
			43.85165639
		]
	},
	"properties": {
		"iata": "SD32",
		"airport": "Murdo Municipal",
		"city": "Murdo",
		"state": "SD",
		"country": "USA"
	}
},
{
	"_id": {
		"$oid": "58c9219b6065008114826b0e"
	},
	"type": "Feature",
	"geometry": {
		"type": "Point",
		"coordinates": [
			-99.61873056,
			36.86330139
		]
	},
	"properties": {
		"iata": "BFK",
		"airport": "Buffalo Municipal",
		"city": "Buffalo",
		"state": "OK",
		"country": "USA"
	}
},
{
	"_id": {
		"$oid": "58c9219b6065008114827221"
	},
	"type": "Feature",
	"geometry": {
		"type": "Point",
		"coordinates": [
			-103.103567,
			44.145094
		]
	},
	"properties": {
		"iata": "RCA",
		"airport": "Ellsworth AFB",
		"city": "NA",
		"state": "NA",
		"country": "USA"
	}
},
{
	"_id": {
		"$oid": "58c9219b6065008114826938"
	},
	"type": "Feature",
	"geometry": {
		"type": "Point",
		"coordinates": [
			-98.0386775,
			42.11222889
		]
	},
	"properties": {
		"iata": "4V9",
		"airport": "Antelope County",
		"city": "Neligh",
		"state": "NE",
		"country": "USA"
	}
},
{
	"_id": {
		"$oid": "58c9219b6065008114826c9c"
	},
	"type": "Feature",
	"geometry": {
		"type": "Point",
		"coordinates": [
			-101.1945,
			36.221
		]
	},
	"properties": {
		"iata": "E42",
		"airport": "Spearman Municipal",
		"city": "Spearman",
		"state": "TX",
		"country": "USA"
	}
},
{
	"_id": {
		"$oid": "58c9219b606500811482720a"
	},
	"type": "Feature",
	"geometry": {
		"type": "Point",
		"coordinates": [
			-104.6197117,
			36.32697806
		]
	},
	"properties": {
		"iata": "Q42",
		"airport": "Springer Municipal",
		"city": "Springer",
		"state": "NM",
		"country": "USA"
	}
},
{
	"_id": {
		"$oid": "58c9219b6065008114826c57"
	},
	"type": "Feature",
	"geometry": {
		"type": "Point",
		"coordinates": [
			-102.5472775,
			36.022585
		]
	},
	"properties": {
		"iata": "DHT",
		"airport": "Dalhart Municipal",
		"city": "Dalhart",
		"state": "TX",
		"country": "USA"
	}
},
{
	"_id": {
		"$oid": "58c9219b60650081148272fe"
	},
	"type": "Feature",
	"geometry": {
		"type": "Point",
		"coordinates": [
			-97.65060333,
			38.7914825
		]
	},
	"properties": {
		"iata": "SLN",
		"airport": "Salina Municipal",
		"city": "Salina",
		"state": "KS",
		"country": "USA"
	}
},
{
	"_id": {
		"$oid": "58c9219b6065008114826aea"
	},
	"type": "Feature",
	"geometry": {
		"type": "Point",
		"coordinates": [
			-105.2892967,
			36.42240972
		]
	},
	"properties": {
		"iata": "AXX",
		"airport": "Angel Fire",
		"city": "Angel Fire",
		"state": "NM",
		"country": "USA"
	}
},
{
	"_id": {
		"$oid": "58c9219b6065008114826d34"
	},
	"type": "Feature",
	"geometry": {
		"type": "Point",
		"coordinates": [
			-97.16927778,
			40.18297222
		]
	},
	"properties": {
		"iata": "FBY",
		"airport": "Fairbury Municipal",
		"city": "Fairbury",
		"state": "NE",
		"country": "USA"
	}
},
{
	"_id": {
		"$oid": "58c9219b6065008114827063"
	},
	"type": "Feature",
	"geometry": {
		"type": "Point",
		"coordinates": [
			-97.69133028,
			38.35243722
		]
	},
	"properties": {
		"iata": "MPR",
		"airport": "McPherson",
		"city": "McPherson",
		"state": "KS",
		"country": "USA"
	}
},
{
	"_id": {
		"$oid": "58c9219b6065008114826c7f"
	},
	"type": "Feature",
	"geometry": {
		"type": "Point",
		"coordinates": [
			-102.0130978,
			35.85792833
		]
	},
	"properties": {
		"iata": "DUX",
		"airport": "Moore County",
		"city": "Dumas",
		"state": "TX",
		"country": "USA"
	}
},
{
	"_id": {
		"$oid": "58c9219b6065008114826e53"
	},
	"type": "Feature",
	"geometry": {
		"type": "Point",
		"coordinates": [
			-97.86063361,
			38.06548306
		]
	},
	"properties": {
		"iata": "HUT",
		"airport": "Hutchinson Municipal",
		"city": "Hutchinson",
		"state": "KS",
		"country": "USA"
	}
},
{
	"_id": {
		"$oid": "58c9219b6065008114827128"
	},
	"type": "Feature",
	"geometry": {
		"type": "Point",
		"coordinates": [
			-97.34263889,
			41.448
		]
	},
	"properties": {
		"iata": "OLU",
		"airport": "Columbus Municipal",
		"city": "Columbus",
		"state": "NE",
		"country": "USA"
	}
},
{
	"_id": {
		"$oid": "58c9219b60650081148272c3"
	},
	"type": "Feature",
	"geometry": {
		"type": "Point",
		"coordinates": [
			-100.0370669,
			43.90637833
		]
	},
	"properties": {
		"iata": "SD34",
		"airport": "Presho Municipal ",
		"city": "Presho",
		"state": "SD",
		"country": "USA"
	}
},
{
	"_id": {
		"$oid": "58c9219b606500811482707d"
	},
	"type": "Feature",
	"geometry": {
		"type": "Point",
		"coordinates": [
			-107.8938333,
			38.50886722
		]
	},
	"properties": {
		"iata": "MTJ",
		"airport": "Montrose Regional",
		"city": "Montrose",
		"state": "CO",
		"country": "USA"
	}
},
{
	"_id": {
		"$oid": "58c9219b60650081148272f8"
	},
	"type": "Feature",
	"geometry": {
		"type": "Point",
		"coordinates": [
			-105.6724289,
			36.45819
		]
	},
	"properties": {
		"iata": "SKX",
		"airport": "Taos Municipal",
		"city": "Taos",
		"state": "NM",
		"country": "USA"
	}
},
{
	"_id": {
		"$oid": "58c9219b6065008114826a39"
	},
	"type": "Feature",
	"geometry": {
		"type": "Point",
		"coordinates": [
			-98.12264722,
			37.66660278
		]
	},
	"properties": {
		"iata": "9K8",
		"airport": "Kingman Municipal",
		"city": "Kingman",
		"state": "KS",
		"country": "USA"
	}
},
{
	"_id": {
		"$oid": "58c9219b6065008114827343"
	},
	"type": "Feature",
	"geometry": {
		"type": "Point",
		"coordinates": [
			-97.10931306,
			40.86525806
		]
	},
	"properties": {
		"iata": "SWT",
		"airport": "Seward Municipal",
		"city": "Seward",
		"state": "NE",
		"country": "USA"
	}
},
{
	"_id": {
		"$oid": "58c9219b6065008114826c25"
	},
	"type": "Feature",
	"geometry": {
		"type": "Point",
		"coordinates": [
			-97.15721417,
			39.38713889
		]
	},
	"properties": {
		"iata": "CYW",
		"airport": "Clay Center Municipal",
		"city": "Clay Center",
		"state": "KS",
		"country": "USA"
	}
},
{
	"_id": {
		"$oid": "58c9219b60650081148269a4"
	},
	"type": "Feature",
	"geometry": {
		"type": "Point",
		"coordinates": [
			-97.88367778,
			42.47083694
		]
	},
	"properties": {
		"iata": "6K3",
		"airport": "Creighton Municipal",
		"city": "Creighton",
		"state": "NE",
		"country": "USA"
	}
},
{
	"_id": {
		"$oid": "58c9219b6065008114826827"
	},
	"type": "Feature",
	"geometry": {
		"type": "Point",
		"coordinates": [
			-108.0636611,
			38.78539722
		]
	},
	"properties": {
		"iata": "1V9",
		"airport": "Blake ",
		"city": "Delta",
		"state": "CO",
		"country": "USA"
	}
},
{
	"_id": {
		"$oid": "58c9219b606500811482698d"
	},
	"type": "Feature",
	"geometry": {
		"type": "Point",
		"coordinates": [
			-103.3747778,
			44.41761111
		]
	},
	"properties": {
		"iata": "66D",
		"airport": "Sturgis Municipal",
		"city": "Sturgis",
		"state": "SD",
		"country": "USA"
	}
},
{
	"_id": {
		"$oid": "58c9219b60650081148267ef"
	},
	"type": "Feature",
	"geometry": {
		"type": "Point",
		"coordinates": [
			-98.82952972,
			43.40332833
		]
	},
	"properties": {
		"iata": "1D3",
		"airport": "Platte Municipal",
		"city": "Platte",
		"state": "SD",
		"country": "USA"
	}
},
{
	"_id": {
		"$oid": "58c9219b6065008114826a1a"
	},
	"type": "Feature",
	"geometry": {
		"type": "Point",
		"coordinates": [
			-97.11698111,
			41.23334583
		]
	},
	"properties": {
		"iata": "93Y",
		"airport": "David City Municipal",
		"city": "David City",
		"state": "NE",
		"country": "USA"
	}
},
{
	"_id": {
		"$oid": "58c9219b6065008114826f0f"
	},
	"type": "Feature",
	"geometry": {
		"type": "Point",
		"coordinates": [
			-97.23585389,
			38.90405583
		]
	},
	"properties": {
		"iata": "K78",
		"airport": "Abilene Municipal",
		"city": "Abilene.",
		"state": "KS",
		"country": "USA"
	}
},
{
	"_id": {
		"$oid": "58c9219b606500811482710e"
	},
	"type": "Feature",
	"geometry": {
		"type": "Point",
		"coordinates": [
			-97.43511111,
			41.98546389
		]
	},
	"properties": {
		"iata": "OFK",
		"airport": "Karl Stefan Memorial",
		"city": "Norfolk",
		"state": "NE",
		"country": "USA"
	}
},
{
	"_id": {
		"$oid": "58c9219b606500811482687c"
	},
	"type": "Feature",
	"geometry": {
		"type": "Point",
		"coordinates": [
			-107.0558742,
			37.277505
		]
	},
	"properties": {
		"iata": "2V1",
		"airport": "Stevens ",
		"city": "Pagosa Springs",
		"state": "CO",
		"country": "USA"
	}
},
{
	"_id": {
		"$oid": "58c9219b6065008114826a7b"
	},
	"type": "Feature",
	"geometry": {
		"type": "Point",
		"coordinates": [
			-98.29618972,
			43.06332694
		]
	},
	"properties": {
		"iata": "AGZ",
		"airport": "Wagner Municipal",
		"city": "Wagner",
		"state": "SD",
		"country": "USA"
	}
},
{
	"_id": {
		"$oid": "58c9219b6065008114826ba1"
	},
	"type": "Feature",
	"geometry": {
		"type": "Point",
		"coordinates": [
			-96.92488889,
			40.61791667
		]
	},
	"properties": {
		"iata": "CEK",
		"airport": "Crete Municipal",
		"city": "Crete",
		"state": "NE",
		"country": "USA"
	}
},
{
	"_id": {
		"$oid": "58c9219b6065008114827450"
	},
	"type": "Feature",
	"geometry": {
		"type": "Point",
		"coordinates": [
			-99.5209975,
			36.4367025
		]
	},
	"properties": {
		"iata": "WWR",
		"airport": "West Woodward",
		"city": "Woodward",
		"state": "OK",
		"country": "USA"
	}
},
{
	"_id": {
		"$oid": "58c9219b6065008114826a47"
	},
	"type": "Feature",
	"geometry": {
		"type": "Point",
		"coordinates": [
			-99.32134,
			43.76612222
		]
	},
	"properties": {
		"iata": "9V9",
		"airport": "Chamberlain Municipal",
		"city": "Chamberlain",
		"state": "SD",
		"country": "USA"
	}
},
{
	"_id": {
		"$oid": "58c9219b6065008114827316"
	},
	"type": "Feature",
	"geometry": {
		"type": "Point",
		"coordinates": [
			-103.7768889,
			44.48022222
		]
	},
	"properties": {
		"iata": "SPF",
		"airport": "Black Hills-Clyde Ice ",
		"city": "Spearfish",
		"state": "SD",
		"country": "USA"
	}
},
{
	"_id": {
		"$oid": "58c9219b6065008114826d87"
	},
	"type": "Feature",
	"geometry": {
		"type": "Point",
		"coordinates": [
			-99.77642361,
			36.29553889
		]
	},
	"properties": {
		"iata": "GAG",
		"airport": "Gage",
		"city": "Gage",
		"state": "OK",
		"country": "USA"
	}
},
{
	"_id": {
		"$oid": "58c9219b6065008114826b13"
	},
	"type": "Feature",
	"geometry": {
		"type": "Point",
		"coordinates": [
			-101.3940536,
			35.70004194
		]
	},
	"properties": {
		"iata": "BGD",
		"airport": "Hutchinson County",
		"city": "Borger",
		"state": "TX",
		"country": "USA"
	}
},
{
	"_id": {
		"$oid": "58c9219b606500811482746a"
	},
	"type": "Feature",
	"geometry": {
		"type": "Point",
		"coordinates": [
			-97.90117972,
			42.87999833
		]
	},
	"properties": {
		"iata": "Y03",
		"airport": "Springfield Municipal",
		"city": "Springfield",
		"state": "SD",
		"country": "USA"
	}
},
{
	"_id": {
		"$oid": "58c9219b606500811482700a"
	},
	"type": "Feature",
	"geometry": {
		"type": "Point",
		"coordinates": [
			-99.19415778,
			36.48475778
		]
	},
	"properties": {
		"iata": "MDF",
		"airport": "Mooreland Municipal",
		"city": "Mooreland",
		"state": "OK",
		"country": "USA"
	}
},
{
	"_id": {
		"$oid": "58c9219b6065008114826b1e"
	},
	"type": "Feature",
	"geometry": {
		"type": "Point",
		"coordinates": [
			-96.75411111,
			40.30127778
		]
	},
	"properties": {
		"iata": "BIE",
		"airport": "Beatrice Municipal",
		"city": "Beatrice",
		"state": "NE",
		"country": "USA"
	}
},
{
	"_id": {
		"$oid": "58c9219b606500811482737a"
	},
	"type": "Feature",
	"geometry": {
		"type": "Point",
		"coordinates": [
			-107.90848,
			37.95375861
		]
	},
	"properties": {
		"iata": "TEX",
		"airport": "Telluride Regional",
		"city": "Telluride",
		"state": "CO",
		"country": "USA"
	}
},
{
	"_id": {
		"$oid": "58c9219b6065008114826dac"
	},
	"type": "Feature",
	"geometry": {
		"type": "Point",
		"coordinates": [
			-108.5267347,
			39.1224125
		]
	},
	"properties": {
		"iata": "GJT",
		"airport": "Walker ",
		"city": "Grand Junction",
		"state": "CO",
		"country": "USA"
	}
},
{
	"_id": {
		"$oid": "58c9219b6065008114826e11"
	},
	"type": "Feature",
	"geometry": {
		"type": "Point",
		"coordinates": [
			-100.4036397,
			35.89530778
		]
	},
	"properties": {
		"iata": "HHF",
		"airport": "Hemphill County",
		"city": "Canadian",
		"state": "TX",
		"country": "USA"
	}
},
{
	"_id": {
		"$oid": "58c9219b6065008114826f89"
	},
	"type": "Feature",
	"geometry": {
		"type": "Point",
		"coordinates": [
			-96.75925,
			40.85097222
		]
	},
	"properties": {
		"iata": "LNK",
		"airport": "Lincoln Municipal",
		"city": "Lincoln",
		"state": "NE",
		"country": "USA"
	}
},
{
	"_id": {
		"$oid": "58c9219b6065008114826adc"
	},
	"type": "Feature",
	"geometry": {
		"type": "Point",
		"coordinates": [
			-98.66994611,
			36.77317
		]
	},
	"properties": {
		"iata": "AVK",
		"airport": "Alva Regional",
		"city": "Alva",
		"state": "OK",
		"country": "USA"
	}
},
{
	"_id": {
		"$oid": "58c9219b6065008114826839"
	},
	"type": "Feature",
	"geometry": {
		"type": "Point",
		"coordinates": [
			-106.8841914,
			36.828535
		]
	},
	"properties": {
		"iata": "24N",
		"airport": "Jicarilla Apache Nation",
		"city": "Dulce",
		"state": "NM",
		"country": "USA"
	}
},
{
	"_id": {
		"$oid": "58c9219b6065008114826936"
	},
	"type": "Feature",
	"geometry": {
		"type": "Point",
		"coordinates": [
			-108.7612172,
			40.09469917
		]
	},
	"properties": {
		"iata": "4V0",
		"airport": "Rangely",
		"city": "Rangely",
		"state": "CO",
		"country": "USA"
	}
},
{
	"_id": {
		"$oid": "58c9219b60650081148271a2"
	},
	"type": "Feature",
	"geometry": {
		"type": "Point",
		"coordinates": [
			-100.285965,
			44.38267694
		]
	},
	"properties": {
		"iata": "PIR",
		"airport": "Pierre Regional",
		"city": "Pierre",
		"state": "SD",
		"country": "USA"
	}
},
{
	"_id": {
		"$oid": "58c9219b60650081148268b4"
	},
	"type": "Feature",
	"geometry": {
		"type": "Point",
		"coordinates": [
			-96.84328694,
			39.04327556
		]
	},
	"properties": {
		"iata": "3JC",
		"airport": "Freeman ",
		"city": "Junction City",
		"state": "KS",
		"country": "USA"
	}
},
{
	"_id": {
		"$oid": "58c9219b6065008114826805"
	},
	"type": "Feature",
	"geometry": {
		"type": "Point",
		"coordinates": [
			-98.85231333,
			36.56670028
		]
	},
	"properties": {
		"iata": "1K5",
		"airport": "Waynoka Municipal",
		"city": "Waynoka",
		"state": "OK",
		"country": "USA"
	}
},
{
	"_id": {
		"$oid": "58c9219b6065008114826aad"
	},
	"type": "Feature",
	"geometry": {
		"type": "Point",
		"coordinates": [
			-98.07964667,
			37.15852194
		]
	},
	"properties": {
		"iata": "ANY",
		"airport": "Anthony Municipal",
		"city": "Anthony",
		"state": "KS",
		"country": "USA"
	}
},
{
	"_id": {
		"$oid": "58c9219b606500811482709c"
	},
	"type": "Feature",
	"geometry": {
		"type": "Point",
		"coordinates": [
			-96.63021389,
			39.85416833
		]
	},
	"properties": {
		"iata": "MYZ",
		"airport": "Marysville Municipal",
		"city": "Marysville",
		"state": "KS",
		"country": "USA"
	}
},
{
	"_id": {
		"$oid": "58c9219b6065008114826cfa"
	},
	"type": "Feature",
	"geometry": {
		"type": "Point",
		"coordinates": [
			-97.27522861,
			38.05710528
		]
	},
	"properties": {
		"iata": "EWK",
		"airport": "Newton-City-County",
		"city": "Newton",
		"state": "KS",
		"country": "USA"
	}
},
{
	"_id": {
		"$oid": "58c9219b60650081148271c1"
	},
	"type": "Feature",
	"geometry": {
		"type": "Point",
		"coordinates": [
			-100.9962608,
			35.61298806
		]
	},
	"properties": {
		"iata": "PPA",
		"airport": "Perry Lefors ",
		"city": "Pampa",
		"state": "TX",
		"country": "USA"
	}
},
{
	"_id": {
		"$oid": "58c9219b6065008114826cb5"
	},
	"type": "Feature",
	"geometry": {
		"type": "Point",
		"coordinates": [
			-103.8619925,
			44.7342075
		]
	},
	"properties": {
		"iata": "EFC",
		"airport": "Belle Fourche Municipal",
		"city": "Belle Fourche",
		"state": "SD",
		"country": "USA"
	}
},
{
	"_id": {
		"$oid": "58c9219b6065008114826d90"
	},
	"type": "Feature",
	"geometry": {
		"type": "Point",
		"coordinates": [
			-105.5393614,
			44.34889806
		]
	},
	"properties": {
		"iata": "GCC",
		"airport": "Gillette-Campbell County",
		"city": "Gillette",
		"state": "WY",
		"country": "USA"
	}
},
{
	"_id": {
		"$oid": "58c9219b6065008114827024"
	},
	"type": "Feature",
	"geometry": {
		"type": "Point",
		"coordinates": [
			-96.67083278,
			39.14096722
		]
	},
	"properties": {
		"iata": "MHK",
		"airport": "Manhattan Regional",
		"city": "Manhattan",
		"state": "KS",
		"country": "USA"
	}
},
{
	"_id": {
		"$oid": "58c9219b6065008114826926"
	},
	"type": "Feature",
	"geometry": {
		"type": "Point",
		"coordinates": [
			-98.35035083,
			36.78336306
		]
	},
	"properties": {
		"iata": "4O5",
		"airport": "Cherokee Municipal",
		"city": "Cherokee",
		"state": "OK",
		"country": "USA"
	}
},
{
	"_id": {
		"$oid": "58c9219b6065008114826a7f"
	},
	"type": "Feature",
	"geometry": {
		"type": "Point",
		"coordinates": [
			-96.59402778,
			41.24133333
		]
	},
	"properties": {
		"iata": "AHQ",
		"airport": "Wahoo Municipal",
		"city": "Wahoo",
		"state": "NE",
		"country": "USA"
	}
},
{
	"_id": {
		"$oid": "58c9219b6065008114826e40"
	},
	"type": "Feature",
	"geometry": {
		"type": "Point",
		"coordinates": [
			-96.80800639,
			38.68322389
		]
	},
	"properties": {
		"iata": "HRU",
		"airport": "Herington Municipal",
		"city": "Herington",
		"state": "KS",
		"country": "USA"
	}
},
{
	"_id": {
		"$oid": "58c9219b6065008114826e91"
	},
	"type": "Feature",
	"geometry": {
		"type": "Point",
		"coordinates": [
			-97.43304583,
			37.64995889
		]
	},
	"properties": {
		"iata": "ICT",
		"airport": "Wichita Mid-Continent",
		"city": "Wichita",
		"state": "KS",
		"country": "USA"
	}
},
{
	"_id": {
		"$oid": "58c9219b6065008114826786"
	},
	"type": "Feature",
	"geometry": {
		"type": "Point",
		"coordinates": [
			-97.25263889,
			42.60355556
		]
	},
	"properties": {
		"iata": "0B4",
		"airport": "Hartington Municipal",
		"city": "Hartington",
		"state": "NE",
		"country": "USA"
	}
},
{
	"_id": {
		"$oid": "58c9219b6065008114826f60"
	},
	"type": "Feature",
	"geometry": {
		"type": "Point",
		"coordinates": [
			-96.98141667,
			42.24188889
		]
	},
	"properties": {
		"iata": "LCG",
		"airport": "Wayne Municipal",
		"city": "Wayne",
		"state": "NE",
		"country": "USA"
	}
},
{
	"_id": {
		"$oid": "58c9219b60650081148272c2"
	},
	"type": "Feature",
	"geometry": {
		"type": "Point",
		"coordinates": [
			-97.97118278,
			43.37915361
		]
	},
	"properties": {
		"iata": "SD33",
		"airport": "Parkston Municipal",
		"city": "Parkston",
		"state": "SD",
		"country": "USA"
	}
},
{
	"_id": {
		"$oid": "58c9219b60650081148272b2"
	},
	"type": "Feature",
	"geometry": {
		"type": "Point",
		"coordinates": [
			-96.62986111,
			41.61033333
		]
	},
	"properties": {
		"iata": "SCB",
		"airport": "Scribner State",
		"city": "Scribner",
		"state": "NE",
		"country": "USA"
	}
},
{
	"_id": {
		"$oid": "58c9219b6065008114826fa7"
	},
	"type": "Feature",
	"geometry": {
		"type": "Point",
		"coordinates": [
			-105.1423889,
			35.65422222
		]
	},
	"properties": {
		"iata": "LVS",
		"airport": "Las Vegas Municipal",
		"city": "Las Vegas",
		"state": "NM",
		"country": "USA"
	}
},
{
	"_id": {
		"$oid": "58c9219b60650081148271fe"
	},
	"type": "Feature",
	"geometry": {
		"type": "Point",
		"coordinates": [
			-106.0464114,
			36.02502306
		]
	},
	"properties": {
		"iata": "Q14",
		"airport": "San Juan Pueblo",
		"city": "Espanola",
		"state": "NM",
		"country": "USA"
	}
},
{
	"_id": {
		"$oid": "58c9219b6065008114826d3f"
	},
	"type": "Feature",
	"geometry": {
		"type": "Point",
		"coordinates": [
			-96.52019444,
			41.44913889
		]
	},
	"properties": {
		"iata": "FET",
		"airport": "Fremont Municipal",
		"city": "Fremont",
		"state": "NE",
		"country": "USA"
	}
},
{
	"_id": {
		"$oid": "58c9219b6065008114826a53"
	},
	"type": "Feature",
	"geometry": {
		"type": "Point",
		"coordinates": [
			-97.22113889,
			37.74755556
		]
	},
	"properties": {
		"iata": "AAO",
		"airport": "Colonel James Jabara",
		"city": "Wichita",
		"state": "KS",
		"country": "USA"
	}
},
{
	"_id": {
		"$oid": "58c9219b6065008114826c9e"
	},
	"type": "Feature",
	"geometry": {
		"type": "Point",
		"coordinates": [
			-102.3990931,
			35.23199833
		]
	},
	"properties": {
		"iata": "E52",
		"airport": "Oldham County",
		"city": "Vega",
		"state": "TX",
		"country": "USA"
	}
},
{
	"_id": {
		"$oid": "58c9219b6065008114826ca2"
	},
	"type": "Feature",
	"geometry": {
		"type": "Point",
		"coordinates": [
			-104.1880314,
			35.36671583
		]
	},
	"properties": {
		"iata": "E89",
		"airport": "Conchas State Park",
		"city": "Conchas Dam",
		"state": "NM",
		"country": "USA"
	}
},
{
	"_id": {
		"$oid": "58c9219b6065008114827480"
	},
	"type": "Feature",
	"geometry": {
		"type": "Point",
		"coordinates": [
			-97.38594444,
			42.91669444
		]
	},
	"properties": {
		"iata": "YKN",
		"airport": "Chan Gurney Municipal",
		"city": "Yankton",
		"state": "SD",
		"country": "USA"
	}
},
{
	"_id": {
		"$oid": "58c9219b60650081148269ba"
	},
	"type": "Feature",
	"geometry": {
		"type": "Point",
		"coordinates": [
			-108.5632597,
			38.23879833
		]
	},
	"properties": {
		"iata": "6V6",
		"airport": "Hopkins ",
		"city": "Nucla",
		"state": "CO",
		"country": "USA"
	}
},
{
	"_id": {
		"$oid": "58c9219b6065008114826c70"
	},
	"type": "Feature",
	"geometry": {
		"type": "Point",
		"coordinates": [
			-107.7537692,
			37.15151667
		]
	},
	"properties": {
		"iata": "DRO",
		"airport": "Durango-La Plata County",
		"city": "Durango",
		"state": "CO",
		"country": "USA"
	}
},
{
	"_id": {
		"$oid": "58c9219b606500811482678b"
	},
	"type": "Feature",
	"geometry": {
		"type": "Point",
		"coordinates": [
			-96.72892556,
			42.11388722
		]
	},
	"properties": {
		"iata": "0C4",
		"airport": "Pender Municipal",
		"city": "Pender",
		"state": "NE",
		"country": "USA"
	}
},
{
	"_id": {
		"$oid": "58c9219b6065008114826aa0"
	},
	"type": "Feature",
	"geometry": {
		"type": "Point",
		"coordinates": [
			-101.7059272,
			35.2193725
		]
	},
	"properties": {
		"iata": "AMA",
		"airport": "Amarillo International",
		"city": "Amarillo",
		"state": "TX",
		"country": "USA"
	}
},
{
	"_id": {
		"$oid": "58c9219b6065008114826c2d"
	},
	"type": "Feature",
	"geometry": {
		"type": "Point",
		"coordinates": [
			-102.0198803,
			45.03609417
		]
	},
	"properties": {
		"iata": "D07",
		"airport": "Faith Municipal",
		"city": "Faith",
		"state": "SD",
		"country": "USA"
	}
},
{
	"_id": {
		"$oid": "58c9219b606500811482736f"
	},
	"type": "Feature",
	"geometry": {
		"type": "Point",
		"coordinates": [
			-103.6031853,
			35.18277806
		]
	},
	"properties": {
		"iata": "TCC",
		"airport": "Tucumcari Municipal",
		"city": "Tucumcari",
		"state": "NM",
		"country": "USA"
	}
},
{
	"_id": {
		"$oid": "58c9219b606500811482693e"
	},
	"type": "Feature",
	"geometry": {
		"type": "Point",
		"coordinates": [
			-96.19445278,
			40.11611111
		]
	},
	"properties": {
		"iata": "50K",
		"airport": "Pawnee City Municipal",
		"city": "Pawnee City",
		"state": "NE",
		"country": "USA"
	}
},
{
	"_id": {
		"$oid": "58c9219b6065008114826a20"
	},
	"type": "Feature",
	"geometry": {
		"type": "Point",
		"coordinates": [
			-100.1087353,
			44.70414917
		]
	},
	"properties": {
		"iata": "98D",
		"airport": "Onida Municipal",
		"city": "Onida",
		"state": "SD",
		"country": "USA"
	}
},
{
	"_id": {
		"$oid": "58c9219b60650081148269f3"
	},
	"type": "Feature",
	"geometry": {
		"type": "Point",
		"coordinates": [
			-101.2510417,
			44.984375
		]
	},
	"properties": {
		"iata": "84D",
		"airport": "Cheyenne Eagle Butte",
		"city": "Eagle Butte",
		"state": "SD",
		"country": "USA"
	}
},
{
	"_id": {
		"$oid": "58c9219b6065008114826cbc"
	},
	"type": "Feature",
	"geometry": {
		"type": "Point",
		"coordinates": [
			-97.38732333,
			37.32441028
		]
	},
	"properties": {
		"iata": "EGT",
		"airport": "Wellington Municipal",
		"city": "Wellington",
		"state": "KS",
		"country": "USA"
	}
},
{
	"_id": {
		"$oid": "58c9219b6065008114826796"
	},
	"type": "Feature",
	"geometry": {
		"type": "Point",
		"coordinates": [
			-96.17139694,
			40.39944417
		]
	},
	"properties": {
		"iata": "0G3",
		"airport": "Tecumseh Municipal",
		"city": "Tecumseh",
		"state": "NE",
		"country": "USA"
	}
},
{
	"_id": {
		"$oid": "58c9219b606500811482689c"
	},
	"type": "Feature",
	"geometry": {
		"type": "Point",
		"coordinates": [
			-97.07787222,
			37.67162778
		]
	},
	"properties": {
		"iata": "3AU",
		"airport": "Augusta Municipal",
		"city": "Augusta",
		"state": "KS",
		"country": "USA"
	}
},
{
	"_id": {
		"$oid": "58c9219b606500811482723b"
	},
	"type": "Feature",
	"geometry": {
		"type": "Point",
		"coordinates": [
			-109.0651928,
			41.5942175
		]
	},
	"properties": {
		"iata": "RKS",
		"airport": "Rock Springs-Sweetwater County",
		"city": "Rock Springs",
		"state": "WY",
		"country": "USA"
	}
},
{
	"_id": {
		"$oid": "58c9219b6065008114826a2a"
	},
	"type": "Feature",
	"geometry": {
		"type": "Point",
		"coordinates": [
			-99.44622306,
			44.54165056
		]
	},
	"properties": {
		"iata": "9D0",
		"airport": "Highmore Municipal",
		"city": "Highmore",
		"state": "SD",
		"country": "USA"
	}
},
{
	"_id": {
		"$oid": "58c9219b6065008114827023"
	},
	"type": "Feature",
	"geometry": {
		"type": "Point",
		"coordinates": [
			-98.03861111,
			43.77483333
		]
	},
	"properties": {
		"iata": "MHE",
		"airport": "Mitchell Municipal",
		"city": "Mitchell",
		"state": "SD",
		"country": "USA"
	}
},
{
	"_id": {
		"$oid": "58c9219b60650081148269a5"
	},
	"type": "Feature",
	"geometry": {
		"type": "Point",
		"coordinates": [
			-98.47582833,
			36.29014667
		]
	},
	"properties": {
		"iata": "6K4",
		"airport": "Fairview Municipal",
		"city": "Fairview",
		"state": "OK",
		"country": "USA"
	}
},
{
	"_id": {
		"$oid": "58c9219b6065008114826f53"
	},
	"type": "Feature",
	"geometry": {
		"type": "Point",
		"coordinates": [
			-106.2694153,
			35.87980194
		]
	},
	"properties": {
		"iata": "LAM",
		"airport": "Los Alamos",
		"city": "Los Alamos",
		"state": "NM",
		"country": "USA"
	}
},
{
	"_id": {
		"$oid": "58c9219b6065008114826823"
	},
	"type": "Feature",
	"geometry": {
		"type": "Point",
		"coordinates": [
			-107.6514444,
			36.80833833
		]
	},
	"properties": {
		"iata": "1V0",
		"airport": "Navajo State Park ",
		"city": "Navajo Dam",
		"state": "NM",
		"country": "USA"
	}
},
{
	"_id": {
		"$oid": "58c9219b6065008114827411"
	},
	"type": "Feature",
	"geometry": {
		"type": "Point",
		"coordinates": [
			-96.93425472,
			42.76528917
		]
	},
	"properties": {
		"iata": "VMR",
		"airport": "Harold Davidson ",
		"city": "Vermillion",
		"state": "SD",
		"country": "USA"
	}
},
{
	"_id": {
		"$oid": "58c9219b6065008114826a19"
	},
	"type": "Feature",
	"geometry": {
		"type": "Point",
		"coordinates": [
			-99.70343889,
			35.60393694
		]
	},
	"properties": {
		"iata": "93F",
		"airport": "Mignon Laird Municipal",
		"city": "Cheyenne",
		"state": "OK",
		"country": "USA"
	}
},
{
	"_id": {
		"$oid": "58c9219b60650081148270f1"
	},
	"type": "Feature",
	"geometry": {
		"type": "Point",
		"coordinates": [
			-97.74899722,
			36.79058417
		]
	},
	"properties": {
		"iata": "O53",
		"airport": "Medford Municipal",
		"city": "Medford",
		"state": "OK",
		"country": "USA"
	}
},
{
	"_id": {
		"$oid": "58c9219b6065008114827042"
	},
	"type": "Feature",
	"geometry": {
		"type": "Point",
		"coordinates": [
			-96.11227778,
			41.196
		]
	},
	"properties": {
		"iata": "MLE",
		"airport": "Millard",
		"city": "Omaha",
		"state": "NE",
		"country": "USA"
	}
},
{
	"_id": {
		"$oid": "58c9219b6065008114826ce3"
	},
	"type": "Feature",
	"geometry": {
		"type": "Point",
		"coordinates": [
			-96.81762778,
			37.77410833
		]
	},
	"properties": {
		"iata": "EQA",
		"airport": "Captain Jack Thomas",
		"city": "El Dorado",
		"state": "KS",
		"country": "USA"
	}
},
{
	"_id": {
		"$oid": "58c9219b6065008114826f07"
	},
	"type": "Feature",
	"geometry": {
		"type": "Point",
		"coordinates": [
			-96.1136275,
			41.41805139
		]
	},
	"properties": {
		"iata": "K46",
		"airport": "Blair Municipal",
		"city": "Blair",
		"state": "NE",
		"country": "USA"
	}
},
{
	"_id": {
		"$oid": "58c9219b6065008114827406"
	},
	"type": "Feature",
	"geometry": {
		"type": "Point",
		"coordinates": [
			-109.5099203,
			40.44090167
		]
	},
	"properties": {
		"iata": "VEL",
		"airport": "Vernal",
		"city": "Vernal",
		"state": "UT",
		"country": "USA"
	}
},
{
	"_id": {
		"$oid": "58c9219b6065008114826b6c"
	},
	"type": "Feature",
	"geometry": {
		"type": "Point",
		"coordinates": [
			-106.7217897,
			44.38108528
		]
	},
	"properties": {
		"iata": "BYG",
		"airport": "Johnson County",
		"city": "Buffalo",
		"state": "WY",
		"country": "USA"
	}
},
{
	"_id": {
		"$oid": "58c9219b606500811482739d"
	},
	"type": "Feature",
	"geometry": {
		"type": "Point",
		"coordinates": [
			-96.17794444,
			41.76352778
		]
	},
	"properties": {
		"iata": "TQE",
		"airport": "Municipal",
		"city": "Tekamah",
		"state": "NE",
		"country": "USA"
	}
},
{
	"_id": {
		"$oid": "58c9219b6065008114827237"
	},
	"type": "Feature",
	"geometry": {
		"type": "Point",
		"coordinates": [
			-108.4598411,
			43.064235
		]
	},
	"properties": {
		"iata": "RIW",
		"airport": "Riverton Regional",
		"city": "Riverton",
		"state": "WY",
		"country": "USA"
	}
},
{
	"_id": {
		"$oid": "58c9219b60650081148272a1"
	},
	"type": "Feature",
	"geometry": {
		"type": "Point",
		"coordinates": [
			-106.0881389,
			35.61677778
		]
	},
	"properties": {
		"iata": "SAF",
		"airport": "Santa Fe Municipal",
		"city": "Santa Fe",
		"state": "NM",
		"country": "USA"
	}
},
{
	"_id": {
		"$oid": "58c9219b6065008114827035"
	},
	"type": "Feature",
	"geometry": {
		"type": "Point",
		"coordinates": [
			-98.95811444,
			44.52524444
		]
	},
	"properties": {
		"iata": "MKA",
		"airport": "Miller Municipal",
		"city": "Miller",
		"state": "SD",
		"country": "USA"
	}
},
{
	"_id": {
		"$oid": "58c9219b60650081148271b2"
	},
	"type": "Feature",
	"geometry": {
		"type": "Point",
		"coordinates": [
			-95.91788889,
			40.95025
		]
	},
	"properties": {
		"iata": "PMV",
		"airport": "Plattsmouth Municipal",
		"city": "Plattsmouth",
		"state": "NE",
		"country": "USA"
	}
},
{
	"_id": {
		"$oid": "58c9219b6065008114826a72"
	},
	"type": "Feature",
	"geometry": {
		"type": "Point",
		"coordinates": [
			-95.86569444,
			40.60688889
		]
	},
	"properties": {
		"iata": "AFK",
		"airport": "Nebraska City Municipal",
		"city": "Nebraska City",
		"state": "NE",
		"country": "USA"
	}
},
{
	"_id": {
		"$oid": "58c9219b60650081148269dc"
	},
	"type": "Feature",
	"geometry": {
		"type": "Point",
		"coordinates": [
			-96.47253111,
			42.45416111
		]
	},
	"properties": {
		"iata": "7K8",
		"airport": "Martin ",
		"city": "South Sioux City",
		"state": "NE",
		"country": "USA"
	}
},
{
	"_id": {
		"$oid": "58c9219b6065008114826e41"
	},
	"type": "Feature",
	"geometry": {
		"type": "Point",
		"coordinates": [
			-102.3272017,
			34.85761639
		]
	},
	"properties": {
		"iata": "HRX",
		"airport": "Hereford Municipal",
		"city": "Hereford",
		"state": "TX",
		"country": "USA"
	}
},
{
	"_id": {
		"$oid": "58c9219b6065008114826f88"
	},
	"type": "Feature",
	"geometry": {
		"type": "Point",
		"coordinates": [
			-108.7298392,
			42.81523611
		]
	},
	"properties": {
		"iata": "LND",
		"airport": "Hunt ",
		"city": "Lander",
		"state": "WY",
		"country": "USA"
	}
},
{
	"_id": {
		"$oid": "58c9219b606500811482733a"
	},
	"type": "Feature",
	"geometry": {
		"type": "Point",
		"coordinates": [
			-96.38436694,
			42.40260333
		]
	},
	"properties": {
		"iata": "SUX",
		"airport": "Sioux Gateway ",
		"city": "Sioux City",
		"state": "IA",
		"country": "USA"
	}
},
{
	"_id": {
		"$oid": "58c9219b60650081148270f7"
	},
	"type": "Feature",
	"geometry": {
		"type": "Point",
		"coordinates": [
			-98.3086825,
			36.11253667
		]
	},
	"properties": {
		"iata": "O65",
		"airport": "Okeene Municipal",
		"city": "Okeene",
		"state": "OK",
		"country": "USA"
	}
},
{
	"_id": {
		"$oid": "58c9219b606500811482678d"
	},
	"type": "Feature",
	"geometry": {
		"type": "Point",
		"coordinates": [
			-99.9535,
			44.98730556
		]
	},
	"properties": {
		"iata": "0D8",
		"airport": "Gettysburg Municipal",
		"city": "Gettysburg",
		"state": "SD",
		"country": "USA"
	}
},
{
	"_id": {
		"$oid": "58c9219b6065008114826efb"
	},
	"type": "Feature",
	"geometry": {
		"type": "Point",
		"coordinates": [
			-95.78916167,
			40.38750167
		]
	},
	"properties": {
		"iata": "K01",
		"airport": "Farington ",
		"city": "Auburn",
		"state": "NE",
		"country": "USA"
	}
},
{
	"_id": {
		"$oid": "58c9219b606500811482712c"
	},
	"type": "Feature",
	"geometry": {
		"type": "Point",
		"coordinates": [
			-95.89417306,
			41.30251861
		]
	},
	"properties": {
		"iata": "OMA",
		"airport": "Eppley Airfield",
		"city": "Omaha",
		"state": "NE",
		"country": "USA"
	}
},
{
	"_id": {
		"$oid": "58c9219b6065008114826f12"
	},
	"type": "Feature",
	"geometry": {
		"type": "Point",
		"coordinates": [
			-95.7794325,
			39.90416667
		]
	},
	"properties": {
		"iata": "K83",
		"airport": "Sabetha Municipal",
		"city": "Sabetha",
		"state": "KS",
		"country": "USA"
	}
},
{
	"_id": {
		"$oid": "58c9219b6065008114827441"
	},
	"type": "Feature",
	"geometry": {
		"type": "Point",
		"coordinates": [
			-97.03752194,
			37.16861556
		]
	},
	"properties": {
		"iata": "WLD",
		"airport": "Strother ",
		"city": "Winfield/Arkansas City",
		"state": "KS",
		"country": "USA"
	}
},
{
	"_id": {
		"$oid": "58c9219b6065008114826cd6"
	},
	"type": "Feature",
	"geometry": {
		"type": "Point",
		"coordinates": [
			-96.19116667,
			38.33211111
		]
	},
	"properties": {
		"iata": "EMP",
		"airport": "Emporia Municipal",
		"city": "Emporia",
		"state": "KS",
		"country": "USA"
	}
},
{
	"_id": {
		"$oid": "58c9219b6065008114826ccd"
	},
	"type": "Feature",
	"geometry": {
		"type": "Point",
		"coordinates": [
			-99.39425917,
			35.42941083
		]
	},
	"properties": {
		"iata": "ELK",
		"airport": "Elk City Municipal",
		"city": "Elk City",
		"state": "OK",
		"country": "USA"
	}
},
{
	"_id": {
		"$oid": "58c9219b60650081148268de"
	},
	"type": "Feature",
	"geometry": {
		"type": "Point",
		"coordinates": [
			-109.6784811,
			40.98607
		]
	},
	"properties": {
		"iata": "40U",
		"airport": "Manila",
		"city": "Manila",
		"state": "UT",
		"country": "USA"
	}
},
{
	"_id": {
		"$oid": "58c9219b606500811482743d"
	},
	"type": "Feature",
	"geometry": {
		"type": "Point",
		"coordinates": [
			-97.79111222,
			36.37920333
		]
	},
	"properties": {
		"iata": "WDG",
		"airport": "Enid Woodring Municipal",
		"city": "Enid",
		"state": "OK",
		"country": "USA"
	}
},
{
	"_id": {
		"$oid": "58c9219b6065008114826924"
	},
	"type": "Feature",
	"geometry": {
		"type": "Point",
		"coordinates": [
			-97.34959972,
			36.74511583
		]
	},
	"properties": {
		"iata": "4O3",
		"airport": "Blackwell-Tonkawa Municipal",
		"city": "Blackwell-Tonkawa",
		"state": "OK",
		"country": "USA"
	}
},
{
	"_id": {
		"$oid": "58c9219b6065008114826819"
	},
	"type": "Feature",
	"geometry": {
		"type": "Point",
		"coordinates": [
			-98.73063833,
			35.73338222
		]
	},
	"properties": {
		"iata": "1O4",
		"airport": "Thomas Municipal",
		"city": "Thomas",
		"state": "OK",
		"country": "USA"
	}
},
{
	"_id": {
		"$oid": "58c9219b606500811482720f"
	},
	"type": "Feature",
	"geometry": {
		"type": "Point",
		"coordinates": [
			-104.643065,
			34.93442472
		]
	},
	"properties": {
		"iata": "Q58",
		"airport": "Santa Rosa Municipal",
		"city": "Santa Rosa",
		"state": "NM",
		"country": "USA"
	}
},
{
	"_id": {
		"$oid": "58c9219b6065008114826b8f"
	},
	"type": "Feature",
	"geometry": {
		"type": "Point",
		"coordinates": [
			-95.75997222,
			41.25947222
		]
	},
	"properties": {
		"iata": "CBF",
		"airport": "Council Bluffs Municipal",
		"city": "Council Bluffs",
		"state": "IA",
		"country": "USA"
	}
},
{
	"_id": {
		"$oid": "58c9219b6065008114826ba7"
	},
	"type": "Feature",
	"geometry": {
		"type": "Point",
		"coordinates": [
			-108.6280658,
			37.30299778
		]
	},
	"properties": {
		"iata": "CEZ",
		"airport": "Cortez Muni",
		"city": "Cortez",
		"state": "CO",
		"country": "USA"
	}
},
{
	"_id": {
		"$oid": "58c9219b6065008114826e32"
	},
	"type": "Feature",
	"geometry": {
		"type": "Point",
		"coordinates": [
			-98.2285425,
			44.38520056
		]
	},
	"properties": {
		"iata": "HON",
		"airport": "Huron Regional",
		"city": "Huron",
		"state": "SD",
		"country": "USA"
	}
},
{
	"_id": {
		"$oid": "58c9219b60650081148272ba"
	},
	"type": "Feature",
	"geometry": {
		"type": "Point",
		"coordinates": [
			-102.4671042,
			45.51859778
		]
	},
	"properties": {
		"iata": "SD07",
		"airport": "Bison Municipal",
		"city": "Bison",
		"state": "SD",
		"country": "USA"
	}
},
{
	"_id": {
		"$oid": "58c9219b606500811482737f"
	},
	"type": "Feature",
	"geometry": {
		"type": "Point",
		"coordinates": [
			-108.2131542,
			43.65828917
		]
	},
	"properties": {
		"iata": "THP",
		"airport": "Hot Springs County-Thermopolis Municipal",
		"city": "Thermopolis",
		"state": "WY",
		"country": "USA"
	}
},
{
	"_id": {
		"$oid": "58c9219b6065008114826ef0"
	},
	"type": "Feature",
	"geometry": {
		"type": "Point",
		"coordinates": [
			-98.42075,
			35.86469444
		]
	},
	"properties": {
		"iata": "JWG",
		"airport": "Watonga",
		"city": "Watonga",
		"state": "OK",
		"country": "USA"
	}
},
{
	"_id": {
		"$oid": "58c9219b6065008114826d59"
	},
	"type": "Feature",
	"geometry": {
		"type": "Point",
		"coordinates": [
			-95.59199167,
			40.07878611
		]
	},
	"properties": {
		"iata": "FNB",
		"airport": "Brenner ",
		"city": "Falls City",
		"state": "NE",
		"country": "USA"
	}
},
{
	"_id": {
		"$oid": "58c9219b6065008114826bd3"
	},
	"type": "Feature",
	"geometry": {
		"type": "Point",
		"coordinates": [
			-98.932695,
			35.53832778
		]
	},
	"properties": {
		"iata": "CLK",
		"airport": "Clinton Municipal",
		"city": "Clinton",
		"state": "OK",
		"country": "USA"
	}
},
{
	"_id": {
		"$oid": "58c9219b6065008114826d56"
	},
	"type": "Feature",
	"geometry": {
		"type": "Point",
		"coordinates": [
			-108.2299444,
			36.74125
		]
	},
	"properties": {
		"iata": "FMN",
		"airport": "Four Corners Regional",
		"city": "Farmington",
		"state": "NM",
		"country": "USA"
	}
},
{
	"_id": {
		"$oid": "58c9219b60650081148267ca"
	},
	"type": "Feature",
	"geometry": {
		"type": "Point",
		"coordinates": [
			-96.29169806,
			37.8515825
		]
	},
	"properties": {
		"iata": "13K",
		"airport": "Eureka Municipal",
		"city": "Eureka",
		"state": "KS",
		"country": "USA"
	}
},
{
	"_id": {
		"$oid": "58c9219b6065008114827448"
	},
	"type": "Feature",
	"geometry": {
		"type": "Point",
		"coordinates": [
			-107.9508308,
			43.96571306
		]
	},
	"properties": {
		"iata": "WRL",
		"airport": "Worland Muni",
		"city": "Worland",
		"state": "WY",
		"country": "USA"
	}
},
{
	"_id": {
		"$oid": "58c9219b6065008114826a06"
	},
	"type": "Feature",
	"geometry": {
		"type": "Point",
		"coordinates": [
			-97.53784778,
			44.02914056
		]
	},
	"properties": {
		"iata": "8D9",
		"airport": "Howard Municipal",
		"city": "Howard",
		"state": "SD",
		"country": "USA"
	}
},
{
	"_id": {
		"$oid": "58c9219b60650081148268c3"
	},
	"type": "Feature",
	"geometry": {
		"type": "Point",
		"coordinates": [
			-99.65787361,
			35.16755222
		]
	},
	"properties": {
		"iata": "3O4",
		"airport": "Sayre Municipal",
		"city": "Sayre",
		"state": "OK",
		"country": "USA"
	}
},
{
	"_id": {
		"$oid": "58c9219b6065008114826a2c"
	},
	"type": "Feature",
	"geometry": {
		"type": "Point",
		"coordinates": [
			-103.5296356,
			45.58055222
		]
	},
	"properties": {
		"iata": "9D2",
		"airport": "Harding County",
		"city": "Buffalo",
		"state": "SD",
		"country": "USA"
	}
},
{
	"_id": {
		"$oid": "58c9219b6065008114826c06"
	},
	"type": "Feature",
	"geometry": {
		"type": "Point",
		"coordinates": [
			-99.20049944,
			35.33983917
		]
	},
	"properties": {
		"iata": "CSM",
		"airport": "Clinton-Sherman",
		"city": "Clinton",
		"state": "OK",
		"country": "USA"
	}
},
{
	"_id": {
		"$oid": "58c9219b6065008114826946"
	},
	"type": "Feature",
	"geometry": {
		"type": "Point",
		"coordinates": [
			-95.80859806,
			38.63334222
		]
	},
	"properties": {
		"iata": "53K",
		"airport": "Osage City Municipal",
		"city": "Osage City",
		"state": "KS",
		"country": "USA"
	}
},
{
	"_id": {
		"$oid": "58c9219b606500811482746b"
	},
	"type": "Feature",
	"geometry": {
		"type": "Point",
		"coordinates": [
			-96.80199528,
			43.45747694
		]
	},
	"properties": {
		"iata": "Y14",
		"airport": "Marv Skie-Lincoln County",
		"city": "Tea",
		"state": "SD",
		"country": "USA"
	}
},
{
	"_id": {
		"$oid": "58c9219b60650081148271b6"
	},
	"type": "Feature",
	"geometry": {
		"type": "Point",
		"coordinates": [
			-97.09976833,
			36.73058417
		]
	},
	"properties": {
		"iata": "PNC",
		"airport": "Ponca City Municipal",
		"city": "Ponca City",
		"state": "OK",
		"country": "USA"
	}
},
{
	"_id": {
		"$oid": "58c9219b606500811482720e"
	},
	"type": "Feature",
	"geometry": {
		"type": "Point",
		"coordinates": [
			-102.3226947,
			34.56673556
		]
	},
	"properties": {
		"iata": "Q55",
		"airport": "Dimmitt Municipal",
		"city": "Dimmitt",
		"state": "TX",
		"country": "USA"
	}
},
{
	"_id": {
		"$oid": "58c9219b6065008114826d5f"
	},
	"type": "Feature",
	"geometry": {
		"type": "Point",
		"coordinates": [
			-95.66361444,
			38.95095194
		]
	},
	"properties": {
		"iata": "FOE",
		"airport": "Forbes ",
		"city": "Topeka",
		"state": "KS",
		"country": "USA"
	}
},
{
	"_id": {
		"$oid": "58c9219b6065008114827396"
	},
	"type": "Feature",
	"geometry": {
		"type": "Point",
		"coordinates": [
			-95.62248361,
			39.0686575
		]
	},
	"properties": {
		"iata": "TOP",
		"airport": "Philip Billard Municipal",
		"city": "Topeka",
		"state": "KS",
		"country": "USA"
	}
},
{
	"_id": {
		"$oid": "58c9219b6065008114826d2a"
	},
	"type": "Feature",
	"geometry": {
		"type": "Point",
		"coordinates": [
			-98.66849028,
			35.54482944
		]
	},
	"properties": {
		"iata": "F91",
		"airport": "Thomas P Stafford",
		"city": "Weatherford",
		"state": "OK",
		"country": "USA"
	}
},
{
	"_id": {
		"$oid": "58c9219b6065008114826f99"
	},
	"type": "Feature",
	"geometry": {
		"type": "Point",
		"coordinates": [
			-96.19368944,
			42.77801778
		]
	},
	"properties": {
		"iata": "LRJ",
		"airport": "Le Mars Municipal",
		"city": "Le Mars",
		"state": "IA",
		"country": "USA"
	}
},
{
	"_id": {
		"$oid": "58c9219b60650081148272bf"
	},
	"type": "Feature",
	"geometry": {
		"type": "Point",
		"coordinates": [
			-99.79783944,
			45.25755861
		]
	},
	"properties": {
		"iata": "SD22",
		"airport": "Hoven Municipal",
		"city": "Hoven",
		"state": "SD",
		"country": "USA"
	}
},
{
	"_id": {
		"$oid": "58c9219b60650081148271fd"
	},
	"type": "Feature",
	"geometry": {
		"type": "Point",
		"coordinates": [
			-101.7814611,
			34.56682472
		]
	},
	"properties": {
		"iata": "Q06",
		"airport": "City of Tulia/Swisher County Municipal",
		"city": "Tulia",
		"state": "TX",
		"country": "USA"
	}
},
{
	"_id": {
		"$oid": "58c9219b60650081148273cc"
	},
	"type": "Feature",
	"geometry": {
		"type": "Point",
		"coordinates": [
			-109.3465053,
			37.937215
		]
	},
	"properties": {
		"iata": "U43",
		"airport": "Monticello",
		"city": "Monticello",
		"state": "UT",
		"country": "USA"
	}
},
{
	"_id": {
		"$oid": "58c9219b60650081148272bb"
	},
	"type": "Feature",
	"geometry": {
		"type": "Point",
		"coordinates": [
			-96.571,
			43.30888889
		]
	},
	"properties": {
		"iata": "SD10",
		"airport": "Canton Municipal",
		"city": "Canton",
		"state": "SD",
		"country": "USA"
	}
},
{
	"_id": {
		"$oid": "58c9219b60650081148272c4"
	},
	"type": "Feature",
	"geometry": {
		"type": "Point",
		"coordinates": [
			-95.41347222,
			40.75148167
		]
	},
	"properties": {
		"iata": "SDA",
		"airport": "Shenandoah Municipal",
		"city": "Shenandoah",
		"state": "IA",
		"country": "USA"
	}
},
{
	"_id": {
		"$oid": "58c9219b60650081148268ab"
	},
	"type": "Feature",
	"geometry": {
		"type": "Point",
		"coordinates": [
			-99.11566417,
			45.03191861
		]
	},
	"properties": {
		"iata": "3FU",
		"airport": "Faulkton Municipal",
		"city": "Faulkton",
		"state": "SD",
		"country": "USA"
	}
},
{
	"_id": {
		"$oid": "58c9219b6065008114826be7"
	},
	"type": "Feature",
	"geometry": {
		"type": "Point",
		"coordinates": [
			-109.7548439,
			38.75495611
		]
	},
	"properties": {
		"iata": "CNY",
		"airport": "Canyonlands ",
		"city": "Moab",
		"state": "UT",
		"country": "USA"
	}
},
{
	"_id": {
		"$oid": "58c9219b6065008114827017"
	},
	"type": "Feature",
	"geometry": {
		"type": "Point",
		"coordinates": [
			-95.79364528,
			42.178295
		]
	},
	"properties": {
		"iata": "MEY",
		"airport": "Mapleton Municipal",
		"city": "Mapleton",
		"state": "IA",
		"country": "USA"
	}
},
{
	"_id": {
		"$oid": "58c9219b60650081148269c2"
	},
	"type": "Feature",
	"geometry": {
		"type": "Point",
		"coordinates": [
			-110.0512619,
			40.27829167
		]
	},
	"properties": {
		"iata": "74V",
		"airport": "Roosevelt Municipal",
		"city": "Roosevelt",
		"state": "UT",
		"country": "USA"
	}
},
{
	"_id": {
		"$oid": "58c9219b6065008114826f09"
	},
	"type": "Feature",
	"geometry": {
		"type": "Point",
		"coordinates": [
			-95.36275806,
			40.44583139
		]
	},
	"properties": {
		"iata": "K57",
		"airport": "Gould Peterson Municipal",
		"city": "Tarkio",
		"state": "MO",
		"country": "USA"
	}
},
{
	"_id": {
		"$oid": "58c9219b6065008114826d08"
	},
	"type": "Feature",
	"geometry": {
		"type": "Point",
		"coordinates": [
			-100.1959481,
			34.84561083
		]
	},
	"properties": {
		"iata": "F06",
		"airport": "Marian Airpark",
		"city": "Wellington",
		"state": "TX",
		"country": "USA"
	}
},
{
	"_id": {
		"$oid": "58c9219b60650081148272e8"
	},
	"type": "Feature",
	"geometry": {
		"type": "Point",
		"coordinates": [
			-106.9802794,
			44.76919556
		]
	},
	"properties": {
		"iata": "SHR",
		"airport": "Sheridan County",
		"city": "Sheridan",
		"state": "WY",
		"country": "USA"
	}
},
{
	"_id": {
		"$oid": "58c9219b6065008114826d0e"
	},
	"type": "Feature",
	"geometry": {
		"type": "Point",
		"coordinates": [
			-100.5297008,
			34.73958944
		]
	},
	"properties": {
		"iata": "F21",
		"airport": "Memphis Municipal",
		"city": "Memphis",
		"state": "TX",
		"country": "USA"
	}
},
{
	"_id": {
		"$oid": "58c9219b6065008114826d16"
	},
	"type": "Feature",
	"geometry": {
		"type": "Point",
		"coordinates": [
			-98.96702167,
			35.30421917
		]
	},
	"properties": {
		"iata": "F36",
		"airport": "Cordell Municipal",
		"city": "Cordell",
		"state": "OK",
		"country": "USA"
	}
},
{
	"_id": {
		"$oid": "58c9219b6065008114826d68"
	},
	"type": "Feature",
	"geometry": {
		"type": "Point",
		"coordinates": [
			-96.74170028,
			43.58135111
		]
	},
	"properties": {
		"iata": "FSD",
		"airport": "Joe Foss ",
		"city": "Sioux Falls",
		"state": "SD",
		"country": "USA"
	}
},
{
	"_id": {
		"$oid": "58c9219b6065008114826d0f"
	},
	"type": "Feature",
	"geometry": {
		"type": "Point",
		"coordinates": [
			-97.27721083,
			36.38559583
		]
	},
	"properties": {
		"iata": "F22",
		"airport": "Perry Municipal",
		"city": "Perry",
		"state": "OK",
		"country": "USA"
	}
},
{
	"_id": {
		"$oid": "58c9219b60650081148267f2"
	},
	"type": "Feature",
	"geometry": {
		"type": "Point",
		"coordinates": [
			-98.52953972,
			44.86247611
		]
	},
	"properties": {
		"iata": "1D8",
		"airport": "Redfield Municipal",
		"city": "Redfield",
		"state": "SD",
		"country": "USA"
	}
},
{
	"_id": {
		"$oid": "58c9219b6065008114826b07"
	},
	"type": "Feature",
	"geometry": {
		"type": "Point",
		"coordinates": [
			-105.4172133,
			45.433325
		]
	},
	"properties": {
		"iata": "BDX",
		"airport": "Broadus",
		"city": "Broadus",
		"state": "MT",
		"country": "USA"
	}
},
{
	"_id": {
		"$oid": "58c9219b6065008114826c14"
	},
	"type": "Feature",
	"geometry": {
		"type": "Point",
		"coordinates": [
			-103.0792778,
			34.42513889
		]
	},
	"properties": {
		"iata": "CVN",
		"airport": "Clovis Municipal",
		"city": "Clovis",
		"state": "NM",
		"country": "USA"
	}
},
{
	"_id": {
		"$oid": "58c9219b6065008114826ff8"
	},
	"type": "Feature",
	"geometry": {
		"type": "Point",
		"coordinates": [
			-100.4079192,
			45.54650361
		]
	},
	"properties": {
		"iata": "MBG",
		"airport": "Mobridge Municipal",
		"city": "Mobridge",
		"state": "SD",
		"country": "USA"
	}
},
{
	"_id": {
		"$oid": "58c9219b60650081148273e7"
	},
	"type": "Feature",
	"geometry": {
		"type": "Point",
		"coordinates": [
			-95.7249575,
			38.30248472
		]
	},
	"properties": {
		"iata": "UKL",
		"airport": "Coffey County",
		"city": "Burlington",
		"state": "KS",
		"country": "USA"
	}
},
{
	"_id": {
		"$oid": "58c9219b606500811482700d"
	},
	"type": "Feature",
	"geometry": {
		"type": "Point",
		"coordinates": [
			-97.08593333,
			44.01597222
		]
	},
	"properties": {
		"iata": "MDS",
		"airport": "Madison Municipal",
		"city": "Madison",
		"state": "SD",
		"country": "USA"
	}
},
{
	"_id": {
		"$oid": "58c9219b6065008114827226"
	},
	"type": "Feature",
	"geometry": {
		"type": "Point",
		"coordinates": [
			-95.25986111,
			41.01052778
		]
	},
	"properties": {
		"iata": "RDK",
		"airport": "Red Oak Municipal",
		"city": "Red Oak",
		"state": "IA",
		"country": "USA"
	}
},
{
	"_id": {
		"$oid": "58c9219b606500811482678e"
	},
	"type": "Feature",
	"geometry": {
		"type": "Point",
		"coordinates": [
			-106.0094661,
			34.98560639
		]
	},
	"properties": {
		"iata": "0E0",
		"airport": "Moriarty",
		"city": "Moriarty",
		"state": "NM",
		"country": "USA"
	}
},
{
	"_id": {
		"$oid": "58c9219b6065008114826d6e"
	},
	"type": "Feature",
	"geometry": {
		"type": "Point",
		"coordinates": [
			-104.2171967,
			34.48339944
		]
	},
	"properties": {
		"iata": "FSU",
		"airport": "Fort Sumner Municipal",
		"city": "Fort Sumner",
		"state": "NM",
		"country": "USA"
	}
},
{
	"_id": {
		"$oid": "58c9219b6065008114826870"
	},
	"type": "Feature",
	"geometry": {
		"type": "Point",
		"coordinates": [
			-98.34236111,
			35.50592472
		]
	},
	"properties": {
		"iata": "2O8",
		"airport": "Hinton Municipal",
		"city": "Hinton",
		"state": "OK",
		"country": "USA"
	}
},
{
	"_id": {
		"$oid": "58c9219b6065008114827143"
	},
	"type": "Feature",
	"geometry": {
		"type": "Point",
		"coordinates": [
			-96.06279667,
			42.99026444
		]
	},
	"properties": {
		"iata": "ORC",
		"airport": "Orange City Municipal",
		"city": "Orange City",
		"state": "IA",
		"country": "USA"
	}
},
{
	"_id": {
		"$oid": "58c9219b60650081148272bc"
	},
	"type": "Feature",
	"geometry": {
		"type": "Point",
		"coordinates": [
			-97.56118861,
			44.43080278
		]
	},
	"properties": {
		"iata": "SD12",
		"airport": "Wilder",
		"city": "De Smet",
		"state": "SD",
		"country": "USA"
	}
},
{
	"_id": {
		"$oid": "58c9219b6065008114826e2b"
	},
	"type": "Feature",
	"geometry": {
		"type": "Point",
		"coordinates": [
			-95.33963889,
			41.58438889
		]
	},
	"properties": {
		"iata": "HNR",
		"airport": "Harlan Municipal",
		"city": "Harlan",
		"state": "IA",
		"country": "USA"
	}
},
{
	"_id": {
		"$oid": "58c9219b6065008114826865"
	},
	"type": "Feature",
	"geometry": {
		"type": "Point",
		"coordinates": [
			-99.52675667,
			34.89172583
		]
	},
	"properties": {
		"iata": "2K4",
		"airport": "Scott ",
		"city": "Mangum",
		"state": "OK",
		"country": "USA"
	}
},
{
	"_id": {
		"$oid": "58c9219b6065008114826979"
	},
	"type": "Feature",
	"geometry": {
		"type": "Point",
		"coordinates": [
			-108.7011986,
			36.6977775
		]
	},
	"properties": {
		"iata": "5V5",
		"airport": "Shiprock Airstrip",
		"city": "Shiprock",
		"state": "NM",
		"country": "USA"
	}
},
{
	"_id": {
		"$oid": "58c9219b6065008114826f0a"
	},
	"type": "Feature",
	"geometry": {
		"type": "Point",
		"coordinates": [
			-95.18033139,
			39.57052472
		]
	},
	"properties": {
		"iata": "K59",
		"airport": "Amelia Earhart",
		"city": "Atchison",
		"state": "KS",
		"country": "USA"
	}
},
{
	"_id": {
		"$oid": "58c9219b6065008114826f69"
	},
	"type": "Feature",
	"geometry": {
		"type": "Point",
		"coordinates": [
			-102.1061778,
			45.91869722
		]
	},
	"properties": {
		"iata": "LEM",
		"airport": "Lemmon Municipal",
		"city": "Lemmon",
		"state": "SD",
		"country": "USA"
	}
},
{
	"_id": {
		"$oid": "58c9219b60650081148270e7"
	},
	"type": "Feature",
	"geometry": {
		"type": "Point",
		"coordinates": [
			-99.90871194,
			34.70839417
		]
	},
	"properties": {
		"iata": "O35",
		"airport": "Hollis Municipal",
		"city": "Hollis",
		"state": "OK",
		"country": "USA"
	}
},
{
	"_id": {
		"$oid": "58c9219b6065008114826c69"
	},
	"type": "Feature",
	"geometry": {
		"type": "Point",
		"coordinates": [
			-95.38072083,
			41.9864325
		]
	},
	"properties": {
		"iata": "DNS",
		"airport": "Denison Municipal",
		"city": "Denison",
		"state": "IA",
		"country": "USA"
	}
},
{
	"_id": {
		"$oid": "58c9219b6065008114826b03"
	},
	"type": "Feature",
	"geometry": {
		"type": "Point",
		"coordinates": [
			-109.4832889,
			37.58303472
		]
	},
	"properties": {
		"iata": "BDG",
		"airport": "Blanding Muni",
		"city": "Blanding",
		"state": "UT",
		"country": "USA"
	}
},
{
	"_id": {
		"$oid": "58c9219b60650081148273d1"
	},
	"type": "Feature",
	"geometry": {
		"type": "Point",
		"coordinates": [
			-110.3809886,
			40.19190167
		]
	},
	"properties": {
		"iata": "U69",
		"airport": "Duchesne Municipal",
		"city": "Duchesne",
		"state": "UT",
		"country": "USA"
	}
},
{
	"_id": {
		"$oid": "58c9219b60650081148272c0"
	},
	"type": "Feature",
	"geometry": {
		"type": "Point",
		"coordinates": [
			-100.7842503,
			45.79680833
		]
	},
	"properties": {
		"iata": "SD28",
		"airport": "McLaughlin Municipal",
		"city": "McLaughlin",
		"state": "SD",
		"country": "USA"
	}
},
{
	"_id": {
		"$oid": "58c9219b6065008114826dfe"
	},
	"type": "Feature",
	"geometry": {
		"type": "Point",
		"coordinates": [
			-99.0513525,
			34.9913075
		]
	},
	"properties": {
		"iata": "HBR",
		"airport": "Hobart Municipal",
		"city": "Hobart",
		"state": "OK",
		"country": "USA"
	}
},
{
	"_id": {
		"$oid": "58c9219b6065008114826fa9"
	},
	"type": "Feature",
	"geometry": {
		"type": "Point",
		"coordinates": [
			-95.21657694,
			39.01115222
		]
	},
	"properties": {
		"iata": "LWC",
		"airport": "Lawrence Municipal",
		"city": "Lawrence",
		"state": "KS",
		"country": "USA"
	}
},
{
	"_id": {
		"$oid": "58c9219b6065008114826e90"
	},
	"type": "Feature",
	"geometry": {
		"type": "Point",
		"coordinates": [
			-95.02642667,
			40.72178361
		]
	},
	"properties": {
		"iata": "ICL",
		"airport": "Schenck ",
		"city": "Clarinda",
		"state": "IA",
		"country": "USA"
	}
},
{
	"_id": {
		"$oid": "58c9219b60650081148273c9"
	},
	"type": "Feature",
	"geometry": {
		"type": "Point",
		"coordinates": [
			-110.2273619,
			38.96136167
		]
	},
	"properties": {
		"iata": "U34",
		"airport": "Green River Muni",
		"city": "Green River",
		"state": "UT",
		"country": "USA"
	}
},
{
	"_id": {
		"$oid": "58c9219b6065008114826e0b"
	},
	"type": "Feature",
	"geometry": {
		"type": "Point",
		"coordinates": [
			-102.6559722,
			46.01494444
		]
	},
	"properties": {
		"iata": "HEI",
		"airport": "Hettinger Municipal",
		"city": "Hettinger",
		"state": "ND",
		"country": "USA"
	}
},
{
	"_id": {
		"$oid": "58c9219b6065008114826a6d"
	},
	"type": "Feature",
	"geometry": {
		"type": "Point",
		"coordinates": [
			-106.7951617,
			35.14515278
		]
	},
	"properties": {
		"iata": "AEG",
		"airport": "Double Eagle II",
		"city": "Albuquerque",
		"state": "NM",
		"country": "USA"
	}
},
{
	"_id": {
		"$oid": "58c9219b606500811482687b"
	},
	"type": "Feature",
	"geometry": {
		"type": "Point",
		"coordinates": [
			-102.6410981,
			34.18513639
		]
	},
	"properties": {
		"iata": "2T1",
		"airport": "Muleshoe Municipal",
		"city": "Muleshoe",
		"state": "TX",
		"country": "USA"
	}
},
{
	"_id": {
		"$oid": "58c9219b6065008114826a1f"
	},
	"type": "Feature",
	"geometry": {
		"type": "Point",
		"coordinates": [
			-104.5375072,
			45.87791444
		]
	},
	"properties": {
		"iata": "97M",
		"airport": "Ekalaka",
		"city": "Ekalaka",
		"state": "MT",
		"country": "USA"
	}
},
{
	"_id": {
		"$oid": "58c9219b6065008114827342"
	},
	"type": "Feature",
	"geometry": {
		"type": "Point",
		"coordinates": [
			-97.08577028,
			36.16025194
		]
	},
	"properties": {
		"iata": "SWO",
		"airport": "Stillwater Regional",
		"city": "Stillwater",
		"state": "OK",
		"country": "USA"
	}
},
{
	"_id": {
		"$oid": "58c9219b6065008114826a59"
	},
	"type": "Feature",
	"geometry": {
		"type": "Point",
		"coordinates": [
			-106.6091944,
			35.04022222
		]
	},
	"properties": {
		"iata": "ABQ",
		"airport": "Albuquerque International",
		"city": "Albuquerque",
		"state": "NM",
		"country": "USA"
	}
},
{
	"_id": {
		"$oid": "58c9219b6065008114826d9e"
	},
	"type": "Feature",
	"geometry": {
		"type": "Point",
		"coordinates": [
			-108.0831944,
			44.51644444
		]
	},
	"properties": {
		"iata": "GEY",
		"airport": "South Big Horn County",
		"city": "Greybull",
		"state": "WY",
		"country": "USA"
	}
},
{
	"_id": {
		"$oid": "58c9219b6065008114826d11"
	},
	"type": "Feature",
	"geometry": {
		"type": "Point",
		"coordinates": [
			-98.00599444,
			35.47163639
		]
	},
	"properties": {
		"iata": "F28",
		"airport": "El Reno Municipal",
		"city": "El Reno",
		"state": "OK",
		"country": "USA"
	}
},
{
	"_id": {
		"$oid": "58c9219b6065008114826df5"
	},
	"type": "Feature",
	"geometry": {
		"type": "Point",
		"coordinates": [
			-96.8103125,
			36.38338556
		]
	},
	"properties": {
		"iata": "H97",
		"airport": "Pawnee Municipal",
		"city": "Pawnee",
		"state": "OK",
		"country": "USA"
	}
},
{
	"_id": {
		"$oid": "58c9219b6065008114826a84"
	},
	"type": "Feature",
	"geometry": {
		"type": "Point",
		"coordinates": [
			-95.04690639,
			41.40726722
		]
	},
	"properties": {
		"iata": "AIO",
		"airport": "Atlantic Municipal",
		"city": "Atlantic",
		"state": "IA",
		"country": "USA"
	}
},
{
	"_id": {
		"$oid": "58c9219b6065008114826cf5"
	},
	"type": "Feature",
	"geometry": {
		"type": "Point",
		"coordinates": [
			-94.91552722,
			40.35260167
		]
	},
	"properties": {
		"iata": "EVU",
		"airport": "Maryville Memorial",
		"city": "Maryville",
		"state": "MO",
		"country": "USA"
	}
},
{
	"_id": {
		"$oid": "58c9219b60650081148271b5"
	},
	"type": "Feature",
	"geometry": {
		"type": "Point",
		"coordinates": [
			-109.8070944,
			42.79549917
		]
	},
	"properties": {
		"iata": "PNA",
		"airport": "Ralph Wenz ",
		"city": "Pinedale",
		"state": "WY",
		"country": "USA"
	}
},
{
	"_id": {
		"$oid": "58c9219b6065008114826dc0"
	},
	"type": "Feature",
	"geometry": {
		"type": "Point",
		"coordinates": [
			-97.41560833,
			35.84980556
		]
	},
	"properties": {
		"iata": "GOK",
		"airport": "Guthrie Municipal",
		"city": "Guthrie",
		"state": "OK",
		"country": "USA"
	}
},
{
	"_id": {
		"$oid": "58c9219b60650081148269f7"
	},
	"type": "Feature",
	"geometry": {
		"type": "Point",
		"coordinates": [
			-98.5806175,
			35.12061417
		]
	},
	"properties": {
		"iata": "86F",
		"airport": "Carnegie Municipal",
		"city": "Carnegie",
		"state": "OK",
		"country": "USA"
	}
},
{
	"_id": {
		"$oid": "58c9219b6065008114826d33"
	},
	"type": "Feature",
	"geometry": {
		"type": "Point",
		"coordinates": [
			-110.4067961,
			41.39193583
		]
	},
	"properties": {
		"iata": "FBR",
		"airport": "Fort Bridger",
		"city": "Fort Bridger",
		"state": "WY",
		"country": "USA"
	}
},
{
	"_id": {
		"$oid": "58c9219b6065008114826bcc"
	},
	"type": "Feature",
	"geometry": {
		"type": "Point",
		"coordinates": [
			-95.55613889,
			42.73147222
		]
	},
	"properties": {
		"iata": "CKP",
		"airport": "Cherokee Municipal",
		"city": "Cherokee",
		"state": "IA",
		"country": "USA"
	}
},
{
	"_id": {
		"$oid": "58c9219b6065008114826c2f"
	},
	"type": "Feature",
	"geometry": {
		"type": "Point",
		"coordinates": [
			-96.21864028,
			43.62080278
		]
	},
	"properties": {
		"iata": "D19",
		"airport": "Quentin Aanenson ",
		"city": "Luverne",
		"state": "MN",
		"country": "USA"
	}
},
{
	"_id": {
		"$oid": "58c9219b606500811482715d"
	},
	"type": "Feature",
	"geometry": {
		"type": "Point",
		"coordinates": [
			-95.25297222,
			38.53866667
		]
	},
	"properties": {
		"iata": "OWI",
		"airport": "Ottawa Municipal",
		"city": "Ottawa",
		"state": "KS",
		"country": "USA"
	}
},
{
	"_id": {
		"$oid": "58c9219b6065008114827206"
	},
	"type": "Feature",
	"geometry": {
		"type": "Point",
		"coordinates": [
			-103.4103333,
			34.14547222
		]
	},
	"properties": {
		"iata": "Q34",
		"airport": "Portales Municipal",
		"city": "Portales",
		"state": "NM",
		"country": "USA"
	}
},
{
	"_id": {
		"$oid": "58c9219b60650081148272be"
	},
	"type": "Feature",
	"geometry": {
		"type": "Point",
		"coordinates": [
			-96.59310139,
			44.00386056
		]
	},
	"properties": {
		"iata": "SD18",
		"airport": "Flandreau Municipal",
		"city": "Flandreau",
		"state": "SD",
		"country": "USA"
	}
},
{
	"_id": {
		"$oid": "58c9219b60650081148271ef"
	},
	"type": "Feature",
	"geometry": {
		"type": "Point",
		"coordinates": [
			-101.7173361,
			34.16814722
		]
	},
	"properties": {
		"iata": "PVW",
		"airport": "Hale County",
		"city": "Plainview",
		"state": "TX",
		"country": "USA"
	}
},
{
	"_id": {
		"$oid": "58c9219b606500811482732c"
	},
	"type": "Feature",
	"geometry": {
		"type": "Point",
		"coordinates": [
			-94.90970556,
			39.77194444
		]
	},
	"properties": {
		"iata": "STJ",
		"airport": "Rosecrans Memorial",
		"city": "St Joseph",
		"state": "MO",
		"country": "USA"
	}
},
{
	"_id": {
		"$oid": "58c9219b60650081148272e6"
	},
	"type": "Feature",
	"geometry": {
		"type": "Point",
		"coordinates": [
			-95.83343306,
			43.20839361
		]
	},
	"properties": {
		"iata": "SHL",
		"airport": "Sheldon Municipal",
		"city": "Sheldon",
		"state": "IA",
		"country": "USA"
	}
},
{
	"_id": {
		"$oid": "58c9219b6065008114826d12"
	},
	"type": "Feature",
	"geometry": {
		"type": "Point",
		"coordinates": [
			-97.82354556,
			35.4880825
		]
	},
	"properties": {
		"iata": "F29",
		"airport": "Clarence E. Page Municipal",
		"city": "Oklahoma City",
		"state": "OK",
		"country": "USA"
	}
},
{
	"_id": {
		"$oid": "58c9219b6065008114826ae8"
	},
	"type": "Feature",
	"geometry": {
		"type": "Point",
		"coordinates": [
			-99.3381,
			34.69878194
		]
	},
	"properties": {
		"iata": "AXS",
		"airport": "Altus Municipal",
		"city": "Altus",
		"state": "OK",
		"country": "USA"
	}
},
{
	"_id": {
		"$oid": "58c9219b6065008114826a05"
	},
	"type": "Feature",
	"geometry": {
		"type": "Point",
		"coordinates": [
			-97.71191361,
			44.89570278
		]
	},
	"properties": {
		"iata": "8D7",
		"airport": "Clark County",
		"city": "Clark",
		"state": "SD",
		"country": "USA"
	}
},
{
	"_id": {
		"$oid": "58c9219b6065008114826b2c"
	},
	"type": "Feature",
	"geometry": {
		"type": "Point",
		"coordinates": [
			-96.81694444,
			44.30483333
		]
	},
	"properties": {
		"iata": "BKX",
		"airport": "Brookings Municipal",
		"city": "Brookings",
		"state": "SD",
		"country": "USA"
	}
},
{
	"_id": {
		"$oid": "58c9219b60650081148271f0"
	},
	"type": "Feature",
	"geometry": {
		"type": "Point",
		"coordinates": [
			-97.64721556,
			35.53455
		]
	},
	"properties": {
		"iata": "PWA",
		"airport": "Wiley Post",
		"city": "Oklahoma City",
		"state": "OK",
		"country": "USA"
	}
},
{
	"_id": {
		"$oid": "58c9219b6065008114826b42"
	},
	"type": "Feature",
	"geometry": {
		"type": "Point",
		"coordinates": [
			-110.1111531,
			42.58506972
		]
	},
	"properties": {
		"iata": "BPI",
		"airport": "Big Piney-Marbleton",
		"city": "Big Piney",
		"state": "WY",
		"country": "USA"
	}
},
{
	"_id": {
		"$oid": "58c9219b6065008114826f0e"
	},
	"type": "Feature",
	"geometry": {
		"type": "Point",
		"coordinates": [
			-95.21691833,
			38.27918833
		]
	},
	"properties": {
		"iata": "K68",
		"airport": "Garnett Municipal",
		"city": "Garnett",
		"state": "KS",
		"country": "USA"
	}
},
{
	"_id": {
		"$oid": "58c9219b6065008114826a6c"
	},
	"type": "Feature",
	"geometry": {
		"type": "Point",
		"coordinates": [
			-94.92054167,
			41.70137556
		]
	},
	"properties": {
		"iata": "ADU",
		"airport": "Audubon Municipal",
		"city": "Audubon",
		"state": "IA",
		"country": "USA"
	}
},
{
	"_id": {
		"$oid": "58c9219b6065008114826c2b"
	},
	"type": "Feature",
	"geometry": {
		"type": "Point",
		"coordinates": [
			-103.4280806,
			46.18699111
		]
	},
	"properties": {
		"iata": "D04",
		"airport": "Bowman Municipal",
		"city": "Bowman",
		"state": "ND",
		"country": "USA"
	}
},
{
	"_id": {
		"$oid": "58c9219b6065008114826f13"
	},
	"type": "Feature",
	"geometry": {
		"type": "Point",
		"coordinates": [
			-95.38638889,
			37.87008333
		]
	},
	"properties": {
		"iata": "K88",
		"airport": "Allen County",
		"city": "Iola",
		"state": "KS",
		"country": "USA"
	}
},
{
	"_id": {
		"$oid": "58c9219b60650081148272bd"
	},
	"type": "Feature",
	"geometry": {
		"type": "Point",
		"coordinates": [
			-99.6420625,
			45.79998111
		]
	},
	"properties": {
		"iata": "SD16",
		"airport": "Eureka Municipal",
		"city": "Eureka",
		"state": "SD",
		"country": "USA"
	}
},
{
	"_id": {
		"$oid": "58c9219b6065008114826f05"
	},
	"type": "Feature",
	"geometry": {
		"type": "Point",
		"coordinates": [
			-94.95602778,
			38.80708333
		]
	},
	"properties": {
		"iata": "K34",
		"airport": "Municipal",
		"city": "Gardner",
		"state": "KS",
		"country": "USA"
	}
},
{
	"_id": {
		"$oid": "58c9219b6065008114826be5"
	},
	"type": "Feature",
	"geometry": {
		"type": "Point",
		"coordinates": [
			-95.48506444,
			37.66879722
		]
	},
	"properties": {
		"iata": "CNU",
		"airport": "Chanute Martin Johnson",
		"city": "Chanute",
		"state": "KS",
		"country": "USA"
	}
},
{
	"_id": {
		"$oid": "58c9219b60650081148272f9"
	},
	"type": "Feature",
	"geometry": {
		"type": "Point",
		"coordinates": [
			-95.24066667,
			42.59719444
		]
	},
	"properties": {
		"iata": "SLB",
		"airport": "Storm Lake Municipal",
		"city": "Storm Lake",
		"state": "IA",
		"country": "USA"
	}
},
{
	"_id": {
		"$oid": "58c9219b60650081148271c9"
	},
	"type": "Feature",
	"geometry": {
		"type": "Point",
		"coordinates": [
			-96.30031083,
			43.98330333
		]
	},
	"properties": {
		"iata": "PQN",
		"airport": "Pipestone Municipal",
		"city": "Pipestone",
		"state": "MN",
		"country": "USA"
	}
},
{
	"_id": {
		"$oid": "58c9219b606500811482746e"
	},
	"type": "Feature",
	"geometry": {
		"type": "Point",
		"coordinates": [
			-100.6348492,
			46.06638556
		]
	},
	"properties": {
		"iata": "Y27",
		"airport": "Standing Rock",
		"city": "Fort Yates",
		"state": "ND",
		"country": "USA"
	}
},
{
	"_id": {
		"$oid": "58c9219b606500811482678f"
	},
	"type": "Feature",
	"geometry": {
		"type": "Point",
		"coordinates": [
			-108.2015961,
			35.71765889
		]
	},
	"properties": {
		"iata": "0E8",
		"airport": "Crownpoint",
		"city": "Crownpoint",
		"state": "NM",
		"country": "USA"
	}
},
{
	"_id": {
		"$oid": "58c9219b6065008114826e95"
	},
	"type": "Feature",
	"geometry": {
		"type": "Point",
		"coordinates": [
			-95.77838333,
			37.15837222
		]
	},
	"properties": {
		"iata": "IDP",
		"airport": "Independence Municipal",
		"city": "Independence",
		"state": "KS",
		"country": "USA"
	}
},
{
	"_id": {
		"$oid": "58c9219b6065008114826cd5"
	},
	"type": "Feature",
	"geometry": {
		"type": "Point",
		"coordinates": [
			-110.5590586,
			41.82494611
		]
	},
	"properties": {
		"iata": "EMM",
		"airport": "Kemmerer Municipal",
		"city": "Kemmerer",
		"state": "WY",
		"country": "USA"
	}
},
{
	"_id": {
		"$oid": "58c9219b6065008114826ecb"
	},
	"type": "Feature",
	"geometry": {
		"type": "Point",
		"coordinates": [
			-94.89030333,
			38.83090472
		]
	},
	"properties": {
		"iata": "IXD",
		"airport": "New Century Aircenter",
		"city": "Olathe",
		"state": "KS",
		"country": "USA"
	}
},
{
	"_id": {
		"$oid": "58c9219b6065008114826df3"
	},
	"type": "Feature",
	"geometry": {
		"type": "Point",
		"coordinates": [
			-96.38362861,
			36.43340222
		]
	},
	"properties": {
		"iata": "H92",
		"airport": "Hominy",
		"city": "Hominy",
		"state": "OK",
		"country": "USA"
	}
},
{
	"_id": {
		"$oid": "58c9219b60650081148271fc"
	},
	"type": "Feature",
	"geometry": {
		"type": "Point",
		"coordinates": [
			-102.3866831,
			33.92395306
		]
	},
	"properties": {
		"iata": "Q00",
		"airport": "Littlefield Municipal",
		"city": "Littlefield",
		"state": "TX",
		"country": "USA"
	}
},
{
	"_id": {
		"$oid": "58c9219b60650081148271e6"
	},
	"type": "Feature",
	"geometry": {
		"type": "Point",
		"coordinates": [
			-110.7514183,
			39.61391556
		]
	},
	"properties": {
		"iata": "PUC",
		"airport": "Carbon County",
		"city": "Price",
		"state": "UT",
		"country": "USA"
	}
},
{
	"_id": {
		"$oid": "58c9219b6065008114827209"
	},
	"type": "Feature",
	"geometry": {
		"type": "Point",
		"coordinates": [
			-101.330435,
			34.00230056
		]
	},
	"properties": {
		"iata": "Q41",
		"airport": "Floydada Municipal",
		"city": "Floydada",
		"state": "TX",
		"country": "USA"
	}
},
{
	"_id": {
		"$oid": "58c9219b6065008114826a5a"
	},
	"type": "Feature",
	"geometry": {
		"type": "Point",
		"coordinates": [
			-98.42183333,
			45.44905556
		]
	},
	"properties": {
		"iata": "ABR",
		"airport": "Aberdeen Regional",
		"city": "Aberdeen",
		"state": "SD",
		"country": "USA"
	}
},
{
	"_id": {
		"$oid": "58c9219b6065008114827002"
	},
	"type": "Feature",
	"geometry": {
		"type": "Point",
		"coordinates": [
			-94.71390556,
			39.29760528
		]
	},
	"properties": {
		"iata": "MCI",
		"airport": "Kansas City International",
		"city": "Kansas City",
		"state": "MO",
		"country": "USA"
	}
},
{
	"_id": {
		"$oid": "58c9219b606500811482711d"
	},
	"type": "Feature",
	"geometry": {
		"type": "Point",
		"coordinates": [
			-97.60073389,
			35.39308833
		]
	},
	"properties": {
		"iata": "OKC",
		"airport": "Will Rogers World",
		"city": "Oklahoma City",
		"state": "OK",
		"country": "USA"
	}
},
{
	"_id": {
		"$oid": "58c9219b6065008114826a1c"
	},
	"type": "Feature",
	"geometry": {
		"type": "Point",
		"coordinates": [
			-96.46418833,
			36.28340306
		]
	},
	"properties": {
		"iata": "95F",
		"airport": "Cleveland Municipal",
		"city": "Cleveland",
		"state": "OK",
		"country": "USA"
	}
},
{
	"_id": {
		"$oid": "58c9219b6065008114826b5f"
	},
	"type": "Feature",
	"geometry": {
		"type": "Point",
		"coordinates": [
			-96.01115167,
			36.76247611
		]
	},
	"properties": {
		"iata": "BVO",
		"airport": "Bartlesville Municipal",
		"city": "Bartlesville",
		"state": "OK",
		"country": "USA"
	}
},
{
	"_id": {
		"$oid": "58c9219b6065008114826f10"
	},
	"type": "Feature",
	"geometry": {
		"type": "Point",
		"coordinates": [
			-94.92524194,
			38.53751389
		]
	},
	"properties": {
		"iata": "K81",
		"airport": "Miami County",
		"city": "Paola",
		"state": "KS",
		"country": "USA"
	}
},
{
	"_id": {
		"$oid": "58c9219b60650081148273c7"
	},
	"type": "Feature",
	"geometry": {
		"type": "Point",
		"coordinates": [
			-109.6902611,
			43.54834722
		]
	},
	"properties": {
		"iata": "U25",
		"airport": "Dubois Municipal",
		"city": "Dubois",
		"state": "WY",
		"country": "USA"
	}
},
{
	"_id": {
		"$oid": "58c9219b60650081148272f6"
	},
	"type": "Feature",
	"geometry": {
		"type": "Point",
		"coordinates": [
			-94.97958333,
			42.37908333
		]
	},
	"properties": {
		"iata": "SKI",
		"airport": "Sac City Municipal",
		"city": "Sac City",
		"state": "IA",
		"country": "USA"
	}
},
{
	"_id": {
		"$oid": "58c9219b6065008114826c0f"
	},
	"type": "Feature",
	"geometry": {
		"type": "Point",
		"coordinates": [
			-96.77305278,
			35.949925
		]
	},
	"properties": {
		"iata": "CUH",
		"airport": "Cushing Municipal",
		"city": "Cushing",
		"state": "OK",
		"country": "USA"
	}
},
{
	"_id": {
		"$oid": "58c9219b6065008114826bb7"
	},
	"type": "Feature",
	"geometry": {
		"type": "Point",
		"coordinates": [
			-97.96618361,
			35.09614694
		]
	},
	"properties": {
		"iata": "CHK",
		"airport": "Chickasha Municipal",
		"city": "Chickasha",
		"state": "OK",
		"country": "USA"
	}
},
{
	"_id": {
		"$oid": "58c9219b60650081148270cc"
	},
	"type": "Feature",
	"geometry": {
		"type": "Point",
		"coordinates": [
			-102.3229389,
			46.359725
		]
	},
	"properties": {
		"iata": "ND44",
		"airport": "Mott Municipal",
		"city": "Mott",
		"state": "ND",
		"country": "USA"
	}
},
{
	"_id": {
		"$oid": "58c9219b60650081148271c3"
	},
	"type": "Feature",
	"geometry": {
		"type": "Point",
		"coordinates": [
			-95.50900667,
			37.33125778
		]
	},
	"properties": {
		"iata": "PPF",
		"airport": "Tri City",
		"city": "Parsons",
		"state": "KS",
		"country": "USA"
	}
},
{
	"_id": {
		"$oid": "58c9219b6065008114826bc1"
	},
	"type": "Feature",
	"geometry": {
		"type": "Point",
		"coordinates": [
			-94.789,
			42.04619444
		]
	},
	"properties": {
		"iata": "CIN",
		"airport": "Arthur N Neu",
		"city": "Carroll",
		"state": "IA",
		"country": "USA"
	}
},
{
	"_id": {
		"$oid": "58c9219b606500811482711b"
	},
	"type": "Feature",
	"geometry": {
		"type": "Point",
		"coordinates": [
			-94.73758583,
			38.84760194
		]
	},
	"properties": {
		"iata": "OJC",
		"airport": "Johnson County Executive",
		"city": "Olathe",
		"state": "KS",
		"country": "USA"
	}
},
{
	"_id": {
		"$oid": "58c9219b6065008114826d06"
	},
	"type": "Feature",
	"geometry": {
		"type": "Point",
		"coordinates": [
			-99.75926861,
			34.27708306
		]
	},
	"properties": {
		"iata": "F01",
		"airport": "Quanah Municipal",
		"city": "Quanah",
		"state": "TX",
		"country": "USA"
	}
},
{
	"_id": {
		"$oid": "58c9219b6065008114826ad2"
	},
	"type": "Feature",
	"geometry": {
		"type": "Point",
		"coordinates": [
			-97.15471944,
			44.91398056
		]
	},
	"properties": {
		"iata": "ATY",
		"airport": "Watertown Municipal",
		"city": "Watertown",
		"state": "SD",
		"country": "USA"
	}
},
{
	"_id": {
		"$oid": "58c9219b6065008114827036"
	},
	"type": "Feature",
	"geometry": {
		"type": "Point",
		"coordinates": [
			-94.592735,
			39.12324111
		]
	},
	"properties": {
		"iata": "MKC",
		"airport": "Downtown",
		"city": "Kansas City",
		"state": "MO",
		"country": "USA"
	}
},
{
	"_id": {
		"$oid": "58c9219b6065008114826bac"
	},
	"type": "Feature",
	"geometry": {
		"type": "Point",
		"coordinates": [
			-95.57189417,
			37.0940475
		]
	},
	"properties": {
		"iata": "CFV",
		"airport": "Coffeyville Municipal",
		"city": "Coffeyville",
		"state": "KS",
		"country": "USA"
	}
},
{
	"_id": {
		"$oid": "58c9219b6065008114826b1b"
	},
	"type": "Feature",
	"geometry": {
		"type": "Point",
		"coordinates": [
			-104.2594475,
			46.34763639
		]
	},
	"properties": {
		"iata": "BHK",
		"airport": "Baker Muni",
		"city": "Baker City",
		"state": "MT",
		"country": "USA"
	}
},
{
	"_id": {
		"$oid": "58c9219b6065008114826ca1"
	},
	"type": "Feature",
	"geometry": {
		"type": "Point",
		"coordinates": [
			-106.8336958,
			34.64519778
		]
	},
	"properties": {
		"iata": "E80",
		"airport": "Alexander Municipal",
		"city": "Belen",
		"state": "NM",
		"country": "USA"
	}
},
{
	"_id": {
		"$oid": "58c9219b60650081148270cb"
	},
	"type": "Feature",
	"geometry": {
		"type": "Point",
		"coordinates": [
			-100.2450028,
			46.21830472
		]
	},
	"properties": {
		"iata": "ND33",
		"airport": "Linton Municipal",
		"city": "Linton",
		"state": "ND",
		"country": "USA"
	}
},
{
	"_id": {
		"$oid": "58c9219b6065008114826d26"
	},
	"type": "Feature",
	"geometry": {
		"type": "Point",
		"coordinates": [
			-102.7338183,
			33.72926389
		]
	},
	"properties": {
		"iata": "F85",
		"airport": "Morton-Cochran County",
		"city": "Morton",
		"state": "TX",
		"country": "USA"
	}
},
{
	"_id": {
		"$oid": "58c9219b6065008114826da2"
	},
	"type": "Feature",
	"geometry": {
		"type": "Point",
		"coordinates": [
			-94.44572222,
			41.32702778
		]
	},
	"properties": {
		"iata": "GFZ",
		"airport": "Greenfield Municipal",
		"city": "Greenfield",
		"state": "IA",
		"country": "USA"
	}
},
{
	"_id": {
		"$oid": "58c9219b6065008114826bf8"
	},
	"type": "Feature",
	"geometry": {
		"type": "Point",
		"coordinates": [
			-96.82027306,
			35.72381556
		]
	},
	"properties": {
		"iata": "CQB",
		"airport": "Chandler Municipal",
		"city": "Chandler",
		"state": "OK",
		"country": "USA"
	}
},
{
	"_id": {
		"$oid": "58c9219b6065008114827152"
	},
	"type": "Feature",
	"geometry": {
		"type": "Point",
		"coordinates": [
			-95.57920917,
			43.65506611
		]
	},
	"properties": {
		"iata": "OTG",
		"airport": "Worthington Municipal",
		"city": "Worthington",
		"state": "MN",
		"country": "USA"
	}
},
{
	"_id": {
		"$oid": "58c9219b6065008114827156"
	},
	"type": "Feature",
	"geometry": {
		"type": "Point",
		"coordinates": [
			-97.47212861,
			35.24556444
		]
	},
	"properties": {
		"iata": "OUN",
		"airport": "University of Oklahoma Westheimer",
		"city": "Norman",
		"state": "OK",
		"country": "USA"
	}
},
{
	"_id": {
		"$oid": "58c9219b606500811482731d"
	},
	"type": "Feature",
	"geometry": {
		"type": "Point",
		"coordinates": [
			-95.20280556,
			43.16552778
		]
	},
	"properties": {
		"iata": "SPW",
		"airport": "Spencer Municipal",
		"city": "Spencer",
		"state": "IA",
		"country": "USA"
	}
},
{
	"_id": {
		"$oid": "58c9219b60650081148273d0"
	},
	"type": "Feature",
	"geometry": {
		"type": "Point",
		"coordinates": [
			-108.4455092,
			44.91167028
		]
	},
	"properties": {
		"iata": "U68",
		"airport": "North Big Horn County",
		"city": "Cowley/Lovell/Byron",
		"state": "WY",
		"country": "USA"
	}
},
{
	"_id": {
		"$oid": "58c9219b6065008114826c07"
	},
	"type": "Feature",
	"geometry": {
		"type": "Point",
		"coordinates": [
			-94.36331917,
			41.02146139
		]
	},
	"properties": {
		"iata": "CSQ",
		"airport": "Creston Municipal",
		"city": "Creston",
		"state": "IA",
		"country": "USA"
	}
},
{
	"_id": {
		"$oid": "58c9219b6065008114826e55"
	},
	"type": "Feature",
	"geometry": {
		"type": "Point",
		"coordinates": [
			-110.7040378,
			38.41803722
		]
	},
	"properties": {
		"iata": "HVE",
		"airport": "Hanksville",
		"city": "Hanksville",
		"state": "UT",
		"country": "USA"
	}
},
{
	"_id": {
		"$oid": "58c9219b6065008114826cf7"
	},
	"type": "Feature",
	"geometry": {
		"type": "Point",
		"coordinates": [
			-111.0321286,
			41.27494528
		]
	},
	"properties": {
		"iata": "EVW",
		"airport": "Evanston-Uinta County Burns ",
		"city": "Evanston",
		"state": "WY",
		"country": "USA"
	}
},
{
	"_id": {
		"$oid": "58c9219b6065008114826be8"
	},
	"type": "Feature",
	"geometry": {
		"type": "Point",
		"coordinates": [
			-109.0237961,
			44.52019417
		]
	},
	"properties": {
		"iata": "COD",
		"airport": "Yellowstone Regional",
		"city": "Cody",
		"state": "WY",
		"country": "USA"
	}
},
{
	"_id": {
		"$oid": "58c9219b6065008114826dbd"
	},
	"type": "Feature",
	"geometry": {
		"type": "Point",
		"coordinates": [
			-107.9006142,
			35.16531472
		]
	},
	"properties": {
		"iata": "GNT",
		"airport": "Grants-Milan Municipal",
		"city": "Grants",
		"state": "NM",
		"country": "USA"
	}
},
{
	"_id": {
		"$oid": "58c9219b6065008114827334"
	},
	"type": "Feature",
	"geometry": {
		"type": "Point",
		"coordinates": [
			-96.65862861,
			35.78756833
		]
	},
	"properties": {
		"iata": "SUD",
		"airport": "Stroud Municipal",
		"city": "Stroud",
		"state": "OK",
		"country": "USA"
	}
},
{
	"_id": {
		"$oid": "58c9219b60650081148267f1"
	},
	"type": "Feature",
	"geometry": {
		"type": "Point",
		"coordinates": [
			-97.51369889,
			45.29329111
		]
	},
	"properties": {
		"iata": "1D7",
		"airport": "Webster Municipal",
		"city": "Webster",
		"state": "SD",
		"country": "USA"
	}
},
{
	"_id": {
		"$oid": "58c9219b6065008114826fd8"
	},
	"type": "Feature",
	"geometry": {
		"type": "Point",
		"coordinates": [
			-106.7092722,
			45.85285
		]
	},
	"properties": {
		"iata": "M46",
		"airport": "Colstrip",
		"city": "Colstrip",
		"state": "MT",
		"country": "USA"
	}
},
{
	"_id": {
		"$oid": "58c9219b6065008114826d94"
	},
	"type": "Feature",
	"geometry": {
		"type": "Point",
		"coordinates": [
			-94.43524611,
			41.68776417
		]
	},
	"properties": {
		"iata": "GCT",
		"airport": "Guthrie County Regional",
		"city": "Guthrie Center",
		"state": "IA",
		"country": "USA"
	}
},
{
	"_id": {
		"$oid": "58c9219b6065008114826804"
	},
	"type": "Feature",
	"geometry": {
		"type": "Point",
		"coordinates": [
			-97.47039389,
			35.1550675
		]
	},
	"properties": {
		"iata": "1K4",
		"airport": "David J. Perry",
		"city": "Goldsby",
		"state": "OK",
		"country": "USA"
	}
},
{
	"_id": {
		"$oid": "58c9219b6065008114826854"
	},
	"type": "Feature",
	"geometry": {
		"type": "Point",
		"coordinates": [
			-96.01138556,
			36.357035
		]
	},
	"properties": {
		"iata": "2F6",
		"airport": "Skiatook Municipal",
		"city": "Skiatook",
		"state": "OK",
		"country": "USA"
	}
},
{
	"_id": {
		"$oid": "58c9219b6065008114826d3b"
	},
	"type": "Feature",
	"geometry": {
		"type": "Point",
		"coordinates": [
			-98.98460222,
			34.35219472
		]
	},
	"properties": {
		"iata": "FDR",
		"airport": "Frederick Municipal",
		"city": "Frederick",
		"state": "OK",
		"country": "USA"
	}
},
{
	"_id": {
		"$oid": "58c9219b6065008114826d04"
	},
	"type": "Feature",
	"geometry": {
		"type": "Point",
		"coordinates": [
			-94.276375,
			39.72755972
		]
	},
	"properties": {
		"iata": "EZZ",
		"airport": "Cameron Memorial",
		"city": "Cameron",
		"state": "MO",
		"country": "USA"
	}
},
{
	"_id": {
		"$oid": "58c9219b6065008114826f59"
	},
	"type": "Feature",
	"geometry": {
		"type": "Point",
		"coordinates": [
			-101.8227778,
			33.66363889
		]
	},
	"properties": {
		"iata": "LBB",
		"airport": "Lubbock International",
		"city": "Lubbock",
		"state": "TX",
		"country": "USA"
	}
},
{
	"_id": {
		"$oid": "58c9219b6065008114826d07"
	},
	"type": "Feature",
	"geometry": {
		"type": "Point",
		"coordinates": [
			-99.28375,
			34.22566806
		]
	},
	"properties": {
		"iata": "F05",
		"airport": "Vernon - Wilbarger County",
		"city": "Vernon",
		"state": "TX",
		"country": "USA"
	}
},
{
	"_id": {
		"$oid": "58c9219b6065008114826793"
	},
	"type": "Feature",
	"geometry": {
		"type": "Point",
		"coordinates": [
			-96.15181028,
			36.17528
		]
	},
	"properties": {
		"iata": "0F8",
		"airport": "William R Pogue Municipal",
		"city": "Sand Springs",
		"state": "OK",
		"country": "USA"
	}
},
{
	"_id": {
		"$oid": "58c9219b6065008114826883"
	},
	"type": "Feature",
	"geometry": {
		"type": "Point",
		"coordinates": [
			-94.61803333,
			42.38748056
		]
	},
	"properties": {
		"iata": "2Y4",
		"airport": "Rockwell City Municipal",
		"city": "Rockwell City",
		"state": "IA",
		"country": "USA"
	}
},
{
	"_id": {
		"$oid": "58c9219b6065008114826def"
	},
	"type": "Feature",
	"geometry": {
		"type": "Point",
		"coordinates": [
			-95.62525583,
			36.72092222
		]
	},
	"properties": {
		"iata": "H66",
		"airport": "Nowata Municipal",
		"city": "Nowata",
		"state": "OK",
		"country": "USA"
	}
},
{
	"_id": {
		"$oid": "58c9219b6065008114826f57"
	},
	"type": "Feature",
	"geometry": {
		"type": "Point",
		"coordinates": [
			-98.41663667,
			34.56771444
		]
	},
	"properties": {
		"iata": "LAW",
		"airport": "Lawton-Ft Sill Regional",
		"city": "Lawton",
		"state": "OK",
		"country": "USA"
	}
},
{
	"_id": {
		"$oid": "58c9219b6065008114826dc2"
	},
	"type": "Feature",
	"geometry": {
		"type": "Point",
		"coordinates": [
			-94.30997361,
			39.33046528
		]
	},
	"properties": {
		"iata": "GPH",
		"airport": "Clay County Regional",
		"city": "Mosby",
		"state": "MO",
		"country": "USA"
	}
},
{
	"_id": {
		"$oid": "58c9219b6065008114826fb2"
	},
	"type": "Feature",
	"geometry": {
		"type": "Point",
		"coordinates": [
			-94.37158333,
			38.95975
		]
	},
	"properties": {
		"iata": "LXT",
		"airport": "Lee's Summit Municipal",
		"city": "Lee's Summit",
		"state": "MO",
		"country": "USA"
	}
},
{
	"_id": {
		"$oid": "58c9219b60650081148271c0"
	},
	"type": "Feature",
	"geometry": {
		"type": "Point",
		"coordinates": [
			-108.793,
			44.86797222
		]
	},
	"properties": {
		"iata": "POY",
		"airport": "Powell Muni",
		"city": "Powell",
		"state": "WY",
		"country": "USA"
	}
},
{
	"_id": {
		"$oid": "58c9219b60650081148268a9"
	},
	"type": "Feature",
	"geometry": {
		"type": "Point",
		"coordinates": [
			-96.42185556,
			35.80685278
		]
	},
	"properties": {
		"iata": "3F7",
		"airport": "Jones Memorial",
		"city": "Bristow",
		"state": "OK",
		"country": "USA"
	}
},
{
	"_id": {
		"$oid": "58c9219b6065008114827202"
	},
	"type": "Feature",
	"geometry": {
		"type": "Point",
		"coordinates": [
			-102.3727333,
			33.54980833
		]
	},
	"properties": {
		"iata": "Q24",
		"airport": "Levelland Municipal",
		"city": "Levelland",
		"state": "TX",
		"country": "USA"
	}
},
{
	"_id": {
		"$oid": "58c9219b606500811482730d"
	},
	"type": "Feature",
	"geometry": {
		"type": "Point",
		"coordinates": [
			-96.94282833,
			35.35730333
		]
	},
	"properties": {
		"iata": "SNL",
		"airport": "Shawnee Municipal",
		"city": "Shawnee",
		"state": "OK",
		"country": "USA"
	}
},
{
	"_id": {
		"$oid": "58c9219b6065008114826cb9"
	},
	"type": "Feature",
	"geometry": {
		"type": "Point",
		"coordinates": [
			-94.34258333,
			42.01016667
		]
	},
	"properties": {
		"iata": "EFW",
		"airport": "Jefferson Municipal",
		"city": "Jefferson",
		"state": "IA",
		"country": "USA"
	}
},
{
	"_id": {
		"$oid": "58c9219b6065008114826d6a"
	},
	"type": "Feature",
	"geometry": {
		"type": "Point",
		"coordinates": [
			-94.76938111,
			37.79843056
		]
	},
	"properties": {
		"iata": "FSK",
		"airport": "Fort Scott Municipal",
		"city": "Fort Scott",
		"state": "KS",
		"country": "USA"
	}
},
{
	"_id": {
		"$oid": "58c9219b60650081148271be"
	},
	"type": "Feature",
	"geometry": {
		"type": "Point",
		"coordinates": [
			-94.64730556,
			42.74280556
		]
	},
	"properties": {
		"iata": "POH",
		"airport": "Pocahontas Municipal",
		"city": "Pocahontas",
		"state": "IA",
		"country": "USA"
	}
},
{
	"_id": {
		"$oid": "58c9219b60650081148270ee"
	},
	"type": "Feature",
	"geometry": {
		"type": "Point",
		"coordinates": [
			-96.71862944,
			35.48201417
		]
	},
	"properties": {
		"iata": "O47",
		"airport": "Prague Municipal",
		"city": "Prague",
		"state": "OK",
		"country": "USA"
	}
},
{
	"_id": {
		"$oid": "58c9219b6065008114826842"
	},
	"type": "Feature",
	"geometry": {
		"type": "Point",
		"coordinates": [
			-96.26309972,
			44.72801889
		]
	},
	"properties": {
		"iata": "27D",
		"airport": "Myers ",
		"city": "Canby",
		"state": "MN",
		"country": "USA"
	}
},
{
	"_id": {
		"$oid": "58c9219b60650081148273ac"
	},
	"type": "Feature",
	"geometry": {
		"type": "Point",
		"coordinates": [
			-95.88824167,
			36.19837222
		]
	},
	"properties": {
		"iata": "TUL",
		"airport": "Tulsa International",
		"city": "Tulsa",
		"state": "OK",
		"country": "USA"
	}
},
{
	"_id": {
		"$oid": "58c9219b60650081148268c2"
	},
	"type": "Feature",
	"geometry": {
		"type": "Point",
		"coordinates": [
			-97.38586167,
			34.97979444
		]
	},
	"properties": {
		"iata": "3O3",
		"airport": "Municipal",
		"city": "Purcell",
		"state": "OK",
		"country": "USA"
	}
},
{
	"_id": {
		"$oid": "58c9219b6065008114827058"
	},
	"type": "Feature",
	"geometry": {
		"type": "Point",
		"coordinates": [
			-94.34213056,
			38.61102222
		]
	},
	"properties": {
		"iata": "MO85",
		"airport": "Lawrence Smith Memorial",
		"city": "Harrisonville",
		"state": "MO",
		"country": "USA"
	}
},
{
	"_id": {
		"$oid": "58c9219b6065008114826dd9"
	},
	"type": "Feature",
	"geometry": {
		"type": "Point",
		"coordinates": [
			-108.7893094,
			35.51105833
		]
	},
	"properties": {
		"iata": "GUP",
		"airport": "Gallup Municipal",
		"city": "Gallup",
		"state": "NM",
		"country": "USA"
	}
},
{
	"_id": {
		"$oid": "58c9219b6065008114826803"
	},
	"type": "Feature",
	"geometry": {
		"type": "Point",
		"coordinates": [
			-97.58642028,
			34.85007333
		]
	},
	"properties": {
		"iata": "1K2",
		"airport": "Lindsay Municipal",
		"city": "Lindsay",
		"state": "OK",
		"country": "USA"
	}
},
{
	"_id": {
		"$oid": "58c9219b60650081148270c6"
	},
	"type": "Feature",
	"geometry": {
		"type": "Point",
		"coordinates": [
			-98.51287889,
			46.01247194
		]
	},
	"properties": {
		"iata": "ND12",
		"airport": "Ellendale Municipal",
		"city": "Ellendale",
		"state": "ND",
		"country": "USA"
	}
},
{
	"_id": {
		"$oid": "58c9219b6065008114826891"
	},
	"type": "Feature",
	"geometry": {
		"type": "Point",
		"coordinates": [
			-111.4288056,
			40.48180556
		]
	},
	"properties": {
		"iata": "36U",
		"airport": "Heber City Municipal/Russ McDonald ",
		"city": "Heber",
		"state": "UT",
		"country": "USA"
	}
},
{
	"_id": {
		"$oid": "58c9219b6065008114826816"
	},
	"type": "Feature",
	"geometry": {
		"type": "Point",
		"coordinates": [
			-98.74200917,
			34.23758944
		]
	},
	"properties": {
		"iata": "1O1",
		"airport": "Grandfield Municipal",
		"city": "Grandfield",
		"state": "OK",
		"country": "USA"
	}
},
{
	"_id": {
		"$oid": "58c9219b6065008114826d1d"
	},
	"type": "Feature",
	"geometry": {
		"type": "Point",
		"coordinates": [
			-101.6607158,
			33.48481
		]
	},
	"properties": {
		"iata": "F49",
		"airport": "Slaton Municipal",
		"city": "Slaton",
		"state": "TX",
		"country": "USA"
	}
},
{
	"_id": {
		"$oid": "58c9219b6065008114826f0d"
	},
	"type": "Feature",
	"geometry": {
		"type": "Point",
		"coordinates": [
			-95.04246222,
			37.15978667
		]
	},
	"properties": {
		"iata": "K67",
		"airport": "Oswego Municipal",
		"city": "Oswego",
		"state": "KS",
		"country": "USA"
	}
},
{
	"_id": {
		"$oid": "58c9219b6065008114827265"
	},
	"type": "Feature",
	"geometry": {
		"type": "Point",
		"coordinates": [
			-95.984635,
			36.0396275
		]
	},
	"properties": {
		"iata": "RVS",
		"airport": "Richard Lloyd Jones, Jr.",
		"city": "Tulsa",
		"state": "OK",
		"country": "USA"
	}
},
{
	"_id": {
		"$oid": "58c9219b60650081148273d6"
	},